time,timestamp,iTOW,year,month,day,hour,min,sec,valid,tAcc,nano,fixType,flags,reserved1,numSV,lon,lat,height,hMSL,hAcc,vAcc,velN,velE,velD,gSpeed,heading,sAcc,headingAcc,pDOP,reserved2
0취,0,0,0,0,0,0,0,0,0,0,0,0,0,0,0,0,0,0,0,0,0,0,0,0,0,0,0,0,0,0
0.668취,668,0,0,0,0,0,0,0,0,0,0,3,0,0,25,1139912884,226027728,50974,0,199,331,-19,38,41,0,0,78,0,0,0
0.768취,768,0,0,0,0,0,0,0,0,0,0,3,0,0,25,1139912885,226027728,50952,0,199,332,30,44,119,0,0,105,0,0,0
0.864취,864,0,0,0,0,0,0,0,0,0,0,3,0,0,25,1139912885,226027728,50940,0,199,332,-4,-25,32,0,0,114,0,0,0
0.966취,966,0,0,0,0,0,0,0,0,0,0,3,0,0,26,1139912885,226027728,50932,0,199,332,-26,-9,-10,0,0,82,0,0,0
1.068취,1068,0,0,0,0,0,0,0,0,0,0,3,0,0,26,1139912885,226027727,50922,0,199,332,-16,-49,36,0,0,107,0,0,0
1.186취,1186,0,0,0,0,0,0,0,0,0,0,3,0,0,26,1139912885,226027728,50913,0,199,333,26,12,25,0,0,97,0,0,0
1.268취,1268,0,0,0,0,0,0,0,0,0,0,3,0,0,26,1139912885,226027728,50906,0,199,333,-19,-40,-9,0,0,83,0,0,0
1.364취,1364,0,0,0,0,0,0,0,0,0,0,3,0,0,26,1139912884,226027728,50895,0,199,333,1,-7,70,0,0,117,0,0,0
1.466취,1466,0,0,0,0,0,0,0,0,0,0,3,0,0,26,1139912885,226027727,50881,0,199,333,6,4,5,0,0,82,0,0,0
1.566취,1566,0,0,0,0,0,0,0,0,0,0,3,0,0,26,1139912885,226027727,50876,0,199,333,-25,-8,-23,0,0,92,0,0,0
1.668취,1668,0,0,0,0,0,0,0,0,0,0,3,0,0,26,1139912885,226027727,50863,0,199,334,21,-12,40,0,0,105,0,0,0
1.768취,1768,0,0,0,0,0,0,0,0,0,0,3,0,0,26,1139912885,226027727,50850,0,199,334,-26,22,9,0,0,48,0,0,0
1.864취,1864,0,0,0,0,0,0,0,0,0,0,3,0,0,26,1139912885,226027727,50837,0,199,334,3,2,9,0,0,85,0,0,0
1.968취,1968,0,0,0,0,0,0,0,0,0,0,3,0,0,26,1139912885,226027727,50825,0,199,334,-7,-16,-2,0,0,72,0,0,0
2.068취,2068,0,0,0,0,0,0,0,0,0,0,3,0,0,26,1139912885,226027727,50817,0,199,334,5,-9,27,0,0,103,0,0,0
2.188취,2188,0,0,0,0,0,0,0,0,0,0,3,0,0,26,1139912885,226027727,50821,0,234,394,-11,3,10,0,0,70,0,0,0
2.268취,2268,0,0,0,0,0,0,0,0,0,0,3,0,0,26,1139912886,226027727,50821,0,283,477,-6,-15,28,0,0,101,0,0,0
2.366취,2366,0,0,0,0,0,0,0,0,0,0,3,0,0,26,1139912887,226027727,50831,0,308,519,-18,-3,4,0,0,58,0,0,0
2.466취,2466,0,0,0,0,0,0,0,0,0,0,3,0,0,26,1139912888,226027727,50838,0,329,554,8,22,-34,0,0,97,0,0,0
2.566취,2566,0,0,0,0,0,0,0,0,0,0,3,0,0,26,1139912888,226027727,50847,0,341,574,2,-3,-17,0,0,81,0,0,0
2.666취,2666,0,0,0,0,0,0,0,0,0,0,3,0,0,26,1139912889,226027728,50855,0,346,585,10,-8,-3,0,0,43,0,0,0
2.766취,2766,0,0,0,0,0,0,0,0,0,0,3,0,0,26,1139912890,226027728,50867,0,357,604,-1,25,-24,0,0,91,0,0,0
2.866취,2866,0,0,0,0,0,0,0,0,0,0,3,0,0,26,1139912891,226027728,50864,0,359,607,9,34,30,0,0,72,0,0,0
2.966취,2966,0,0,0,0,0,0,0,0,0,0,3,0,0,26,1139912892,226027729,50865,0,360,608,50,36,4,0,0,75,0,0,0
3.068취,3068,0,0,0,0,0,0,0,0,0,0,3,0,0,26,1139912893,226027729,50863,0,361,610,-9,-36,90,0,0,109,0,0,0
3.184취,3184,0,0,0,0,0,0,0,0,0,0,3,0,0,26,1139912893,226027729,50873,0,361,611,-6,-9,10,0,0,102,0,0,0
3.266취,3266,0,0,0,0,0,0,0,0,0,0,3,0,0,26,1139912894,226027729,50876,0,358,607,1,11,34,0,0,102,0,0,0
3.366취,3366,0,0,0,0,0,0,0,0,0,0,3,0,0,26,1139912894,226027729,50877,0,352,597,-14,-20,92,0,0,110,0,0,0
3.466취,3466,0,0,0,0,0,0,0,0,0,0,3,0,0,26,1139912895,226027729,50881,0,349,592,-4,-7,21,0,0,103,0,0,0
3.568취,3568,0,0,0,0,0,0,0,0,0,0,3,0,0,26,1139912895,226027729,50882,0,341,579,4,12,20,0,0,90,0,0,0
3.666취,3666,0,0,0,0,0,0,0,0,0,0,3,0,0,26,1139912896,226027729,50882,0,336,572,19,13,29,0,0,90,0,0,0
3.764취,3764,0,0,0,0,0,0,0,0,0,0,3,0,0,26,1139912897,226027730,50892,0,339,576,4,7,-41,0,0,105,0,0,0
3.866취,3866,0,0,0,0,0,0,0,0,0,0,3,0,0,26,1139912897,226027730,50897,0,340,578,-20,4,-14,0,0,79,0,0,0
3.966취,3966,0,0,0,0,0,0,0,0,0,0,3,0,0,26,1139912897,226027730,50899,0,336,573,2,7,-51,0,0,110,0,0,0
4.066취,4066,0,0,0,0,0,0,0,0,0,0,3,0,0,26,1139912898,226027730,50909,0,335,570,-19,2,-31,0,0,105,0,0,0
4.184취,4184,0,0,0,0,0,0,0,0,0,0,3,0,0,26,1139912898,226027730,50910,0,333,568,-29,28,-58,0,0,110,0,0,0
4.264취,4264,0,0,0,0,0,0,0,0,0,0,3,0,0,26,1139912899,226027730,50913,0,338,577,1,-29,-17,0,0,82,0,0,0
4.366취,4366,0,0,0,0,0,0,0,0,0,0,3,0,0,26,1139912899,226027730,50910,0,342,583,27,34,43,0,0,103,0,0,0
4.466취,4466,0,0,0,0,0,0,0,0,0,0,3,0,0,25,1139912898,226027730,50902,0,274,467,1,-15,-42,0,0,116,0,0,0
4.566취,4566,0,0,0,0,0,0,0,0,0,0,3,0,0,26,1139912899,226027730,50907,0,298,507,1,53,14,0,0,84,0,0,0
4.666취,4666,0,0,0,0,0,0,0,0,0,0,3,0,0,26,1139912899,226027730,50911,0,311,529,0,-14,-19,0,0,100,0,0,0
4.764취,4764,0,0,0,0,0,0,0,0,0,0,3,0,0,26,1139912899,226027731,50911,0,318,541,11,-16,52,0,0,126,0,0,0
4.866취,4866,0,0,0,0,0,0,0,0,0,0,3,0,0,26,1139912898,226027731,50898,0,256,436,23,-9,43,0,0,118,0,0,0
4.966취,4966,0,0,0,0,0,0,0,0,0,0,3,0,0,26,1139912898,226027731,50883,0,209,356,-9,-27,-2,0,0,87,0,0,0
5.068취,5068,0,0,0,0,0,0,0,0,0,0,3,0,0,26,1139912897,226027730,50863,0,198,338,-14,-23,79,0,0,121,0,0,0
5.186취,5186,0,0,0,0,0,0,0,0,0,0,3,0,0,26,1139912896,226027730,50850,0,199,338,-27,-14,43,0,0,108,0,0,0
5.264취,5264,0,0,0,0,0,0,0,0,0,0,3,0,0,26,1139912896,226027730,50842,0,199,339,17,21,-4,0,0,86,0,0,0
5.366취,5366,0,0,0,0,0,0,0,0,0,0,3,0,0,26,1139912895,226027730,50823,0,199,339,-25,-65,40,0,0,101,0,0,0
5.466취,5466,0,0,0,0,0,0,0,0,0,0,3,0,0,26,1139912894,226027730,50811,0,199,339,0,-7,8,0,0,84,0,0,0
5.566취,5566,0,0,0,0,0,0,0,0,0,0,3,0,0,26,1139912894,226027729,50803,0,199,339,26,28,19,0,0,75,0,0,0
5.666취,5666,0,0,0,0,0,0,0,0,0,0,3,0,0,26,1139912893,226027729,50781,0,199,339,-16,5,23,0,0,83,0,0,0
5.764취,5764,0,0,0,0,0,0,0,0,0,0,3,0,0,26,1139912892,226027729,50774,0,199,339,-12,-16,-16,0,0,78,0,0,0
5.866취,5866,0,0,0,0,0,0,0,0,0,0,3,0,0,25,1139912891,226027729,50758,0,199,340,-9,-30,45,0,0,109,0,0,0
5.966취,5966,0,0,0,0,0,0,0,0,0,0,3,0,0,24,1139912890,226027728,50739,0,199,340,-36,-32,91,0,0,108,0,0,0
6.066취,6066,0,0,0,0,0,0,0,0,0,0,3,0,0,26,1139912890,226027728,50727,0,199,340,44,29,48,0,0,92,0,0,0
6.182취,6182,0,0,0,0,0,0,0,0,0,0,3,0,0,26,1139912889,226027729,50714,0,199,340,25,-50,16,0,0,80,0,0,0
6.264취,6264,0,0,0,0,0,0,0,0,0,0,3,0,0,26,1139912888,226027729,50690,0,199,340,20,10,201,0,0,118,0,0,0
6.366취,6366,0,0,0,0,0,0,0,0,0,0,3,0,0,26,1139912887,226027728,50673,0,199,340,-21,-14,128,0,0,121,0,0,0
6.466취,6466,0,0,0,0,0,0,0,0,0,0,3,0,0,25,1139912886,226027728,50669,0,199,340,-7,-29,70,0,0,127,0,0,0
6.566취,6566,0,0,0,0,0,0,0,0,0,0,3,0,0,25,1139912886,226027728,50663,0,199,340,11,-4,53,0,0,130,0,0,0
6.666취,6666,0,0,0,0,0,0,0,0,0,0,3,0,0,25,1139912884,226027728,50661,0,200,341,-36,-96,-13,0,0,94,0,0,0
6.764취,6764,0,0,0,0,0,0,0,0,0,0,3,0,0,25,1139912883,226027728,50665,0,200,341,55,62,27,0,0,100,0,0,0
6.866취,6866,0,0,0,0,0,0,0,0,0,0,3,0,0,25,1139912882,226027728,50665,0,200,341,-32,-73,-45,0,0,103,0,0,0
6.966취,6966,0,0,0,0,0,0,0,0,0,0,3,0,0,25,1139912882,226027728,50667,0,200,342,6,75,27,0,0,95,0,0,0
7.066취,7066,0,0,0,0,0,0,0,0,0,0,3,0,0,25,1139912881,226027728,50661,0,201,342,-35,-43,1,0,0,115,0,0,0
7.186취,7186,0,0,0,0,0,0,0,0,0,0,3,0,0,25,1139912880,226027727,50654,0,201,343,-13,-44,-41,0,0,112,0,0,0
7.264취,7264,0,0,0,0,0,0,0,0,0,0,3,0,0,26,1139912879,226027727,50653,0,202,343,-5,43,-35,0,0,130,0,0,0
7.366취,7366,0,0,0,0,0,0,0,0,0,0,3,0,0,26,1139912878,226027727,50634,0,202,344,24,-38,37,0,0,124,0,0,0
7.464취,7464,0,0,0,0,0,0,0,0,0,0,3,0,0,26,1139912877,226027727,50633,0,202,345,-5,44,-117,0,0,148,0,0,0
7.564취,7564,0,0,0,0,0,0,0,0,0,0,3,0,0,25,1139912877,226027727,50621,0,203,345,8,68,-60,0,0,134,0,0,0
7.664취,7664,0,0,0,0,0,0,0,0,0,0,3,0,0,25,1139912876,226027727,50607,0,203,346,39,-26,-21,0,0,73,0,0,0
7.764취,7764,0,0,0,0,0,0,0,0,0,0,3,0,0,25,1139912875,226027727,50597,0,204,347,5,29,-14,0,0,123,0,0,0
7.864취,7864,0,0,0,0,0,0,0,0,0,0,3,0,0,26,1139912874,226027727,50596,0,204,347,-14,-21,-81,0,0,133,0,0,0
7.966취,7966,0,0,0,0,0,0,0,0,0,0,3,0,0,26,1139912873,226027727,50585,0,204,348,36,12,26,0,0,108,0,0,0
8.066취,8066,0,0,0,0,0,0,0,0,0,0,3,0,0,26,1139912872,226027727,50578,0,204,348,-23,-4,-56,0,0,129,0,0,0
8.18취,8180,0,0,0,0,0,0,0,0,0,0,3,0,0,26,1139912871,226027727,50565,0,205,348,-43,-17,-11,0,0,92,0,0,0
8.266취,8266,0,0,0,0,0,0,0,0,0,0,3,0,0,26,1139912870,226027726,50566,0,205,349,9,17,-40,0,0,131,0,0,0
8.366취,8366,0,0,0,0,0,0,0,0,0,0,3,0,0,26,1139912869,226027726,50557,0,205,349,14,7,-20,0,0,115,0,0,0
8.466취,8466,0,0,0,0,0,0,0,0,0,0,3,0,0,25,1139912868,226027726,50542,0,205,349,-5,-7,38,0,0,123,0,0,0
8.566취,8566,0,0,0,0,0,0,0,0,0,0,3,0,0,25,1139912867,226027727,50529,0,205,349,14,-15,-4,0,0,54,0,0,0
8.664취,8664,0,0,0,0,0,0,0,0,0,0,3,0,0,25,1139912866,226027726,50518,0,205,350,8,42,-13,0,0,92,0,0,0
8.766취,8766,0,0,0,0,0,0,0,0,0,0,3,0,0,25,1139912866,226027726,50508,0,205,350,-13,-11,24,0,0,109,0,0,0
8.866취,8866,0,0,0,0,0,0,0,0,0,0,3,0,0,25,1139912865,226027726,50493,0,205,350,-15,-4,16,0,0,93,0,0,0
8.966취,8966,0,0,0,0,0,0,0,0,0,0,3,0,0,25,1139912863,226027726,50479,0,205,350,53,7,-24,0,0,69,0,0,0
9.066취,9066,0,0,0,0,0,0,0,0,0,0,3,0,0,25,1139912862,226027726,50464,0,205,350,-6,-43,32,0,0,92,0,0,0
9.182취,9182,0,0,0,0,0,0,0,0,0,0,3,0,0,25,1139912861,226027725,50464,0,205,350,-15,21,-58,0,0,100,0,0,0
9.266취,9266,0,0,0,0,0,0,0,0,0,0,3,0,0,25,1139912861,226027725,50450,0,205,350,4,13,-1,0,0,71,0,0,0
9.364취,9364,0,0,0,0,0,0,0,0,0,0,3,0,0,25,1139912860,226027725,50435,0,205,350,6,-14,13,0,0,88,0,0,0
9.464취,9464,0,0,0,0,0,0,0,0,0,0,3,0,0,25,1139912858,226027725,50426,0,205,350,-5,-6,-40,0,0,94,0,0,0
9.566취,9566,0,0,0,0,0,0,0,0,0,0,3,0,0,25,1139912857,226027724,50410,0,205,350,12,6,3,0,0,60,0,0,0
9.664취,9664,0,0,0,0,0,0,0,0,0,0,3,0,0,25,1139912856,226027724,50398,0,205,350,23,-4,-18,0,0,64,0,0,0
9.766취,9766,0,0,0,0,0,0,0,0,0,0,3,0,0,25,1139912855,226027724,50387,0,205,349,-25,-8,4,0,0,56,0,0,0
9.866취,9866,0,0,0,0,0,0,0,0,0,0,3,0,0,25,1139912854,226027723,50371,0,205,349,19,17,-1,0,0,61,0,0,0
9.966취,9966,0,0,0,0,0,0,0,0,0,0,3,0,0,25,1139912853,226027723,50354,0,205,349,13,-19,51,0,0,98,0,0,0
10.066취,10066,0,0,0,0,0,0,0,0,0,0,3,0,0,25,1139912852,226027723,50345,0,205,349,0,-17,-1,0,0,57,0,0,0
10.182취,10182,0,0,0,0,0,0,0,0,0,0,3,0,0,26,1139912851,226027723,50329,0,205,349,-28,-8,36,0,0,82,0,0,0
10.266취,10266,0,0,0,0,0,0,0,0,0,0,3,0,0,26,1139912849,226027722,50311,0,205,349,-30,-45,72,0,0,92,0,0,0
10.366취,10366,0,0,0,0,0,0,0,0,0,0,3,0,0,26,1139912848,226027722,50307,0,209,357,49,42,16,0,0,63,0,0,0
10.466취,10466,0,0,0,0,0,0,0,0,0,0,3,0,0,26,1139912847,226027721,50300,0,221,377,-30,-29,-6,0,0,64,0,0,0
10.566취,10566,0,0,0,0,0,0,0,0,0,0,3,0,0,26,1139912846,226027720,50299,0,243,414,-11,29,36,0,0,74,0,0,0
10.664취,10664,0,0,0,0,0,0,0,0,0,0,3,0,0,26,1139912845,226027720,50298,0,263,448,31,-19,4,0,0,52,0,0,0
10.766취,10766,0,0,0,0,0,0,0,0,0,0,3,0,0,25,1139912843,226027719,50299,0,273,466,-4,-8,44,0,0,112,0,0,0
10.866취,10866,0,0,0,0,0,0,0,0,0,0,3,0,0,25,1139912841,226027719,50298,0,281,479,8,-53,57,0,0,109,0,0,0
10.966취,10966,0,0,0,0,0,0,0,0,0,0,3,0,0,25,1139912840,226027719,50291,0,267,455,1,-75,49,0,0,104,0,0,0
11.066취,11066,0,0,0,0,0,0,0,0,0,0,3,0,0,25,1139912838,226027718,50299,0,258,440,12,-10,36,0,0,115,0,0,0
11.184취,11184,0,0,0,0,0,0,0,0,0,0,3,0,0,25,1139912837,226027718,50303,0,253,433,9,-56,49,0,0,107,0,0,0
11.266취,11266,0,0,0,0,0,0,0,0,0,0,3,0,0,25,1139912835,226027718,50303,0,251,428,-24,14,22,0,0,81,0,0,0
11.366취,11366,0,0,0,0,0,0,0,0,0,0,3,0,0,25,1139912834,226027717,50304,0,249,424,29,7,55,0,0,114,0,0,0
11.466취,11466,0,0,0,0,0,0,0,0,0,0,3,0,0,25,1139912833,226027717,50307,0,248,424,10,41,-25,0,0,108,0,0,0
11.566취,11566,0,0,0,0,0,0,0,0,0,0,3,0,0,25,1139912832,226027717,50301,0,248,424,-11,-32,42,0,0,122,0,0,0
11.664취,11664,0,0,0,0,0,0,0,0,0,0,3,0,0,25,1139912831,226027716,50304,0,248,424,61,24,22,0,0,88,0,0,0
11.766취,11766,0,0,0,0,0,0,0,0,0,0,3,0,0,25,1139912830,226027716,50295,0,249,425,-6,-18,63,0,0,131,0,0,0
11.866취,11866,0,0,0,0,0,0,0,0,0,0,3,0,0,25,1139912828,226027716,50295,0,233,398,-6,-30,-15,0,0,95,0,0,0
11.966취,11966,0,0,0,0,0,0,0,0,0,0,3,0,0,25,1139912827,226027716,50290,0,225,385,11,16,21,0,0,112,0,0,0
12.066취,12066,0,0,0,0,0,0,0,0,0,0,3,0,0,25,1139912826,226027717,50294,0,220,377,32,-10,-32,0,0,98,0,0,0
12.184취,12184,0,0,0,0,0,0,0,0,0,0,3,0,0,25,1139912825,226027717,50292,0,218,372,8,1,16,0,0,122,0,0,0
12.266취,12266,0,0,0,0,0,0,0,0,0,0,3,0,0,25,1139912824,226027717,50289,0,215,368,-20,-29,84,0,0,130,0,0,0
12.366취,12366,0,0,0,0,0,0,0,0,0,0,3,0,0,25,1139912823,226027717,50298,0,210,358,-12,-15,-61,0,0,124,0,0,0
12.466취,12466,0,0,0,0,0,0,0,0,0,0,3,0,0,25,1139912822,226027717,50304,0,207,354,5,45,-77,0,0,128,0,0,0
12.566취,12566,0,0,0,0,0,0,0,0,0,0,3,0,0,25,1139912821,226027717,50297,0,207,354,-23,-41,18,0,0,99,0,0,0
12.666취,12666,0,0,0,0,0,0,0,0,0,0,3,0,0,25,1139912820,226027718,50293,0,207,355,6,53,-11,0,0,88,0,0,0
12.766취,12766,0,0,0,0,0,0,0,0,0,0,3,0,0,25,1139912820,226027718,50296,0,207,355,-11,5,5,0,0,63,0,0,0
12.866취,12866,0,0,0,0,0,0,0,0,0,0,3,0,0,25,1139912818,226027718,50278,0,207,355,-29,-62,21,0,0,91,0,0,0
12.966취,12966,0,0,0,0,0,0,0,0,0,0,3,0,0,25,1139912817,226027718,50276,0,207,356,23,51,13,0,0,77,0,0,0
13.066취,13066,0,0,0,0,0,0,0,0,0,0,3,0,0,25,1139912816,226027718,50273,0,207,356,1,-38,8,0,0,79,0,0,0
13.188취,13188,0,0,0,0,0,0,0,0,0,0,3,0,0,25,1139912816,226027719,50274,0,207,356,25,48,-25,0,0,90,0,0,0
13.266취,13266,0,0,0,0,0,0,0,0,0,0,3,0,0,25,1139912814,226027719,50267,0,207,356,-3,-44,-3,0,0,67,0,0,0
13.366취,13366,0,0,0,0,0,0,0,0,0,0,3,0,0,25,1139912814,226027719,50268,0,207,356,1,32,-31,0,0,104,0,0,0
13.466취,13466,0,0,0,0,0,0,0,0,0,0,3,0,0,25,1139912813,226027719,50262,0,207,356,18,-18,-15,0,0,60,0,0,0
13.564취,13564,0,0,0,0,0,0,0,0,0,0,3,0,0,25,1139912812,226027720,50253,0,207,357,16,16,35,0,0,96,0,0,0
13.666취,13666,0,0,0,0,0,0,0,0,0,0,3,0,0,25,1139912811,226027720,50240,0,207,357,-2,-62,6,0,0,68,0,0,0
13.766취,13766,0,0,0,0,0,0,0,0,0,0,3,0,0,26,1139912809,226027720,50223,0,207,357,-26,6,18,0,0,69,0,0,0
13.866취,13866,0,0,0,0,0,0,0,0,0,0,3,0,0,26,1139912808,226027720,50216,0,207,357,12,-48,5,0,0,67,0,0,0
13.966취,13966,0,0,0,0,0,0,0,0,0,0,3,0,0,26,1139912807,226027720,50202,0,207,357,23,23,28,0,0,91,0,0,0
14.064취,14064,0,0,0,0,0,0,0,0,0,0,3,0,0,26,1139912806,226027721,50194,0,207,357,26,-19,-19,0,0,63,0,0,0
14.186취,14186,0,0,0,0,0,0,0,0,0,0,3,0,0,26,1139912805,226027721,50185,0,207,357,-32,-2,17,0,0,79,0,0,0
14.266취,14266,0,0,0,0,0,0,0,0,0,0,3,0,0,26,1139912803,226027721,50169,0,207,357,-29,-38,40,0,0,111,0,0,0
14.366취,14366,0,0,0,0,0,0,0,0,0,0,3,0,0,26,1139912802,226027721,50159,0,207,358,13,8,8,0,0,92,0,0,0
14.464취,14464,0,0,0,0,0,0,0,0,0,0,3,0,0,26,1139912801,226027721,50143,0,207,358,-35,39,52,0,0,90,0,0,0
14.562취,14562,0,0,0,0,0,0,0,0,0,0,3,0,0,26,1139912800,226027721,50127,0,207,358,44,-36,47,0,0,105,0,0,0
14.666취,14666,0,0,0,0,0,0,0,0,0,0,3,0,0,26,1139912798,226027721,50117,0,208,359,-13,12,-25,0,0,120,0,0,0
14.764취,14764,0,0,0,0,0,0,0,0,0,0,3,0,0,26,1139912797,226027721,50102,0,208,359,-6,20,-12,0,0,102,0,0,0
14.866취,14866,0,0,0,0,0,0,0,0,0,0,3,0,0,26,1139912796,226027721,50080,0,208,359,45,-16,54,0,0,105,0,0,0
14.968취,14968,0,0,0,0,0,0,0,0,0,0,3,0,0,27,1139912795,226027721,50076,0,208,360,-15,21,-11,0,0,84,0,0,0
15.064취,15064,0,0,0,0,0,0,0,0,0,0,3,0,0,27,1139912794,226027721,50057,0,208,360,-22,-17,32,0,0,112,0,0,0
15.188취,15188,0,0,0,0,0,0,0,0,0,0,3,0,0,27,1139912793,226027721,50049,0,208,360,1,6,5,0,0,86,0,0,0
15.266취,15266,0,0,0,0,0,0,0,0,0,0,3,0,0,27,1139912792,226027721,50029,0,208,360,20,12,38,0,0,111,0,0,0
15.366취,15366,0,0,0,0,0,0,0,0,0,0,3,0,0,27,1139912790,226027721,50020,0,208,361,-11,-31,-3,0,0,85,0,0,0
15.466취,15466,0,0,0,0,0,0,0,0,0,0,3,0,0,27,1139912789,226027721,50009,0,208,361,-5,24,26,0,0,97,0,0,0
15.564취,15564,0,0,0,0,0,0,0,0,0,0,3,0,0,27,1139912787,226027721,49998,0,208,361,-10,1,-46,0,0,129,0,0,0
15.666취,15666,0,0,0,0,0,0,0,0,0,0,3,0,0,27,1139912786,226027720,49992,0,208,362,-18,-5,-45,0,0,128,0,0,0
15.766취,15766,0,0,0,0,0,0,0,0,0,0,3,0,0,27,1139912784,226027720,49977,0,211,367,19,6,71,0,0,131,0,0,0
15.866취,15866,0,0,0,0,0,0,0,0,0,0,3,0,0,27,1139912783,226027720,49973,0,214,371,9,29,2,0,0,93,0,0,0
15.964취,15964,0,0,0,0,0,0,0,0,0,0,3,0,0,27,1139912781,226027720,49964,0,216,375,-35,-108,19,0,0,100,0,0,0
16.062취,16062,0,0,0,0,0,0,0,0,0,0,3,0,0,27,1139912780,226027719,49952,0,216,375,9,49,56,0,0,111,0,0,0
16.188취,16188,0,0,0,0,0,0,0,0,0,0,3,0,0,26,1139912779,226027719,49931,0,209,364,-1,15,56,0,0,125,0,0,0
16.264취,16264,0,0,0,0,0,0,0,0,0,0,3,0,0,25,1139912777,226027719,49908,0,210,365,-6,-24,51,0,0,131,0,0,0
16.364취,16364,0,0,0,0,0,0,0,0,0,0,3,0,0,26,1139912776,226027719,49899,0,210,365,-12,3,4,0,0,63,0,0,0
16.464취,16464,0,0,0,0,0,0,0,0,0,0,3,0,0,26,1139912774,226027719,49867,0,210,365,2,-8,50,0,0,127,0,0,0
16.562취,16562,0,0,0,0,0,0,0,0,0,0,3,0,0,26,1139912773,226027719,49846,0,210,366,16,-11,69,0,0,124,0,0,0
16.664취,16664,0,0,0,0,0,0,0,0,0,0,3,0,0,26,1139912772,226027719,49824,0,210,366,-13,-4,35,0,0,118,0,0,0
16.77취,16770,0,0,0,0,0,0,0,0,0,0,3,0,0,27,1139912771,226027719,49806,0,210,366,7,-12,-5,0,0,65,0,0,0
16.866취,16866,0,0,0,0,0,0,0,0,0,0,3,0,0,27,1139912770,226027719,49789,0,210,366,14,16,-28,0,0,108,0,0,0
16.966취,16966,0,0,0,0,0,0,0,0,0,0,3,0,0,27,1139912768,226027719,49764,0,210,367,12,-23,43,0,0,112,0,0,0
17.064취,17064,0,0,0,0,0,0,0,0,0,0,3,0,0,27,1139912767,226027719,49748,0,210,367,0,13,-6,0,0,90,0,0,0
17.188취,17188,0,0,0,0,0,0,0,0,0,0,3,0,0,27,1139912766,226027719,49732,0,210,367,-27,-30,-46,0,0,94,0,0,0
17.266취,17266,0,0,0,0,0,0,0,0,0,0,3,0,0,27,1139912764,226027718,49717,0,210,367,0,-25,-8,0,0,73,0,0,0
17.366취,17366,0,0,0,0,0,0,0,0,0,0,3,0,0,27,1139912763,226027718,49701,0,210,367,12,16,-36,0,0,113,0,0,0
17.464취,17464,0,0,0,0,0,0,0,0,0,0,3,0,0,27,1139912762,226027718,49685,0,210,368,16,56,-41,0,0,103,0,0,0
17.566취,17566,0,0,0,0,0,0,0,0,0,0,3,0,0,27,1139912761,226027718,49667,0,210,368,14,32,-32,0,0,109,0,0,0
17.666취,17666,0,0,0,0,0,0,0,0,0,0,3,0,0,27,1139912760,226027718,49650,0,210,368,-17,-40,-32,0,0,96,0,0,0
17.766취,17766,0,0,0,0,0,0,0,0,0,0,3,0,0,27,1139912758,226027718,49639,0,210,368,-60,-22,-98,0,0,111,0,0,0
17.866취,17866,0,0,0,0,0,0,0,0,0,0,3,0,0,27,1139912756,226027717,49624,0,210,369,-41,-39,-77,0,0,106,0,0,0
17.964취,17964,0,0,0,0,0,0,0,0,0,0,3,0,0,26,1139912755,226027716,49649,0,238,417,-49,-21,-123,0,0,118,0,0,0
18.084취,18084,0,0,0,0,0,0,0,0,0,0,3,0,0,25,1139912753,226027715,49640,0,211,369,-109,-10,-125,0,0,111,0,0,0
18.208취,18208,0,0,0,0,0,0,0,0,0,0,3,0,0,25,1139912751,226027714,49635,0,211,370,-76,-5,-151,0,0,125,0,0,0
18.286취,18286,0,0,0,0,0,0,0,0,0,0,3,0,0,25,1139912749,226027713,49630,0,211,370,-120,-45,-182,0,0,120,0,0,0
18.384취,18384,0,0,0,0,0,0,0,0,0,0,3,0,0,24,1139912747,226027712,49628,0,211,370,-39,-40,-171,0,0,131,0,0,0
18.48취,18480,0,0,0,0,0,0,0,0,0,0,3,0,0,26,1139912745,226027711,49618,0,211,371,-164,-54,-144,0,0,114,0,0,0
18.584취,18584,0,0,0,0,0,0,0,0,0,0,3,0,0,26,1139912743,226027709,49615,0,211,372,-118,-54,-113,0,0,117,0,0,0
18.686취,18686,0,0,0,0,0,0,0,0,0,0,3,0,0,25,1139912741,226027708,49590,0,211,372,-62,-22,-16,0,0,99,0,0,0
18.786취,18786,0,0,0,0,0,0,0,0,0,0,3,0,0,26,1139912739,226027707,49593,0,212,373,-55,-4,-118,0,0,145,0,0,0
18.88취,18880,0,0,0,0,0,0,0,0,0,0,3,0,0,24,1139912737,226027706,49601,0,212,374,-118,-81,-275,0,0,156,0,0,0
18.978취,18978,0,0,0,0,0,0,0,0,0,0,3,0,0,24,1139912736,226027706,49601,0,212,376,12,133,-233,0,0,165,0,0,0
19.066취,19066,0,0,0,0,0,0,0,0,0,0,3,0,0,25,1139912735,226027705,49617,0,213,377,-40,-103,-271,0,0,167,0,0,0
19.186취,19186,0,0,0,0,0,0,0,0,0,0,3,0,0,25,1139912733,226027705,49628,0,213,379,-20,-17,-173,0,0,175,0,0,0
19.266취,19266,0,0,0,0,0,0,0,0,0,0,3,0,0,26,1139912732,226027705,49638,0,214,380,-5,-16,-135,0,0,166,0,0,0
19.366취,19366,0,0,0,0,0,0,0,0,0,0,3,0,0,26,1139912731,226027704,49668,0,214,381,27,-28,-237,0,0,158,0,0,0
19.464취,19464,0,0,0,0,0,0,0,0,0,0,3,0,0,26,1139912730,226027705,49679,0,214,382,70,19,-255,0,0,150,0,0,0
19.566취,19566,0,0,0,0,0,0,0,0,0,0,3,0,0,26,1139912729,226027705,49696,0,214,382,17,-49,-177,0,0,141,0,0,0
19.666취,19666,0,0,0,0,0,0,0,0,0,0,3,0,0,26,1139912727,226027705,49715,0,214,383,41,-46,-255,0,0,139,0,0,0
19.786취,19786,0,0,0,0,0,0,0,0,0,0,3,0,0,26,1139912726,226027705,49743,0,215,383,75,-42,-297,0,0,130,0,0,0
19.886취,19886,0,0,0,0,0,0,0,0,0,0,3,0,0,26,1139912725,226027706,49765,0,215,383,102,-71,-290,0,0,119,0,0,0
19.982취,19982,0,0,0,0,0,0,0,0,0,0,3,0,0,26,1139912724,226027707,49795,0,215,384,89,7,-262,0,0,125,0,0,0
20.086취,20086,0,0,0,0,0,0,0,0,0,0,3,0,0,26,1139912723,226027707,49803,0,215,384,71,-44,-192,0,0,115,0,0,0
20.21취,20210,0,0,0,0,0,0,0,0,0,0,3,0,0,26,1139912722,226027708,49806,0,215,384,32,-58,-218,0,0,116,0,0,0
20.266취,20266,0,0,0,0,0,0,0,0,0,0,3,0,0,27,1139912720,226027708,49859,0,253,453,107,-28,-280,0,0,119,0,0,0
20.386취,20386,0,0,0,0,0,0,0,0,0,0,3,0,0,26,1139912720,226027709,49908,0,214,385,164,-13,-373,0,0,119,0,0,0
20.482취,20482,0,0,0,0,0,0,0,0,0,0,3,0,0,26,1139912719,226027710,49962,0,259,466,32,-35,-401,0,0,128,0,0,0
20.586취,20586,0,0,0,0,0,0,0,0,0,0,3,0,0,26,1139912719,226027710,50014,0,288,519,25,-53,-368,0,0,125,0,0,0
20.684취,20684,0,0,0,0,0,0,0,0,0,0,3,0,0,25,1139912718,226027711,50035,0,234,421,143,6,-283,0,0,116,0,0,0
20.786취,20786,0,0,0,0,0,0,0,0,0,0,3,0,0,26,1139912719,226027712,50090,0,279,503,94,10,-244,0,0,113,0,0,0
20.886취,20886,0,0,0,0,0,0,0,0,0,0,3,0,0,26,1139912719,226027713,50143,0,302,545,57,43,-343,0,0,117,0,0,0
20.984취,20984,0,0,0,0,0,0,0,0,0,0,3,0,0,26,1139912720,226027713,50206,0,321,578,51,-18,-426,0,0,118,0,0,0
21.086취,21086,0,0,0,0,0,0,0,0,0,0,3,0,0,26,1139912720,226027714,50255,0,329,595,85,12,-323,0,0,112,0,0,0
21.21취,21210,0,0,0,0,0,0,0,0,0,0,3,0,0,26,1139912720,226027715,50310,0,336,607,92,89,-346,0,0,116,0,0,0
21.286취,21286,0,0,0,0,0,0,0,0,0,0,3,0,0,26,1139912721,226027716,50340,0,270,488,101,85,-402,0,0,113,0,0,0
21.386취,21386,0,0,0,0,0,0,0,0,0,0,3,0,0,26,1139912722,226027717,50400,0,314,568,74,62,-339,0,0,113,0,0,0
21.484취,21484,0,0,0,0,0,0,0,0,0,0,3,0,0,26,1139912723,226027717,50472,0,336,608,4,48,-385,0,0,116,0,0,0
21.586취,21586,0,0,0,0,0,0,0,0,0,0,3,0,0,26,1139912724,226027718,50512,0,349,631,61,30,-175,0,0,113,0,0,0
21.686취,21686,0,0,0,0,0,0,0,0,0,0,3,0,0,26,1139912725,226027719,50553,0,357,645,30,57,-39,0,0,94,0,0,0
21.786취,21786,0,0,0,0,0,0,0,0,0,0,3,0,0,26,1139912726,226027719,50571,0,360,653,8,4,52,0,0,118,0,0,0
21.884취,21884,0,0,0,0,0,0,0,0,0,0,3,0,0,26,1139912726,226027719,50541,0,286,518,19,71,232,0,0,114,0,0,0
21.984취,21984,0,0,0,0,0,0,0,0,0,0,3,0,0,26,1139912727,226027719,50516,0,256,466,-19,63,173,0,0,108,0,0,0
22.086취,22086,0,0,0,0,0,0,0,0,0,0,3,0,0,26,1139912728,226027719,50495,0,239,434,25,59,50,0,0,86,0,0,0
22.21취,22210,0,0,0,0,0,0,0,0,0,0,3,0,0,26,1139912728,226027719,50491,0,229,417,-7,25,-3,0,0,69,0,0,0
22.286취,22286,0,0,0,0,0,0,0,0,0,0,3,0,0,26,1139912728,226027718,50483,0,227,413,-10,1,34,0,0,112,0,0,0
22.384취,22384,0,0,0,0,0,0,0,0,0,0,3,0,0,26,1139912728,226027718,50472,0,228,415,27,20,80,0,0,113,0,0,0
22.484취,22484,0,0,0,0,0,0,0,0,0,0,3,0,0,26,1139912728,226027718,50451,0,211,384,-28,35,82,0,0,99,0,0,0
22.588취,22588,0,0,0,0,0,0,0,0,0,0,3,0,0,26,1139912728,226027718,50445,0,210,384,4,-14,10,0,0,94,0,0,0
22.686취,22686,0,0,0,0,0,0,0,0,0,0,3,0,0,26,1139912728,226027718,50435,0,226,413,-3,2,73,0,0,115,0,0,0
22.784취,22784,0,0,0,0,0,0,0,0,0,0,3,0,0,26,1139912728,226027718,50435,0,238,435,-6,2,49,0,0,113,0,0,0
22.882취,22882,0,0,0,0,0,0,0,0,0,0,3,0,0,26,1139912728,226027718,50428,0,247,452,-44,23,11,0,0,44,0,0,0
22.984취,22984,0,0,0,0,0,0,0,0,0,0,3,0,0,26,1139912729,226027718,50429,0,254,465,9,47,20,0,0,69,0,0,0
23.084취,23084,0,0,0,0,0,0,0,0,0,0,3,0,0,26,1139912729,226027718,50417,0,210,384,-28,26,73,0,0,99,0,0,0
23.206취,23206,0,0,0,0,0,0,0,0,0,0,3,0,0,26,1139912730,226027717,50429,0,239,439,-13,62,-32,0,0,82,0,0,0
23.286취,23286,0,0,0,0,0,0,0,0,0,0,3,0,0,25,1139912731,226027717,50440,0,261,481,-44,-9,-45,0,0,93,0,0,0
23.382취,23382,0,0,0,0,0,0,0,0,0,0,3,0,0,26,1139912731,226027717,50454,0,277,510,-2,10,-24,0,0,115,0,0,0
23.486취,23486,0,0,0,0,0,0,0,0,0,0,3,0,0,26,1139912731,226027717,50459,0,290,534,-16,18,-9,0,0,70,0,0,0
23.586취,23586,0,0,0,0,0,0,0,0,0,0,3,0,0,26,1139912732,226027716,50466,0,301,555,-50,-32,31,0,0,76,0,0,0
23.684취,23684,0,0,0,0,0,0,0,0,0,0,3,0,0,26,1139912731,226027716,50464,0,242,447,1,-10,0,0,0,52,0,0,0
23.786취,23786,0,0,0,0,0,0,0,0,0,0,3,0,0,26,1139912732,226027716,50483,0,281,520,3,93,-55,0,0,91,0,0,0
23.882취,23882,0,0,0,0,0,0,0,0,0,0,3,0,0,26,1139912734,226027716,50503,0,306,567,9,77,-77,0,0,103,0,0,0
23.984취,23984,0,0,0,0,0,0,0,0,0,0,3,0,0,26,1139912735,226027716,50528,0,324,600,36,125,-118,0,0,100,0,0,0
24.084취,24084,0,0,0,0,0,0,0,0,0,0,3,0,0,25,1139912737,226027717,50549,0,338,627,39,189,-65,0,0,80,0,0,0
24.206취,24206,0,0,0,0,0,0,0,0,0,0,3,0,0,26,1139912741,226027718,50578,0,350,650,126,300,-46,0,0,68,0,0,0
24.286취,24286,0,0,0,0,0,0,0,0,0,0,3,0,0,26,1139912744,226027719,50581,0,280,520,155,361,-91,0,0,71,0,0,0
24.362취,24362,0,0,0,0,0,0,0,0,0,0,3,0,0,26,1139912749,226027720,50562,0,350,652,139,450,-48,0,0,69,0,0,0
24.464취,24464,0,0,0,0,0,0,0,0,0,0,3,0,0,26,1139912755,226027722,50540,0,383,714,124,511,26,0,0,65,0,0,0
24.584취,24584,0,0,0,0,0,0,0,0,0,0,3,0,0,25,1139912760,226027723,50486,0,326,607,209,513,10,0,0,68,0,0,0
24.702취,24702,0,0,0,0,0,0,0,0,0,0,3,0,0,25,1139912765,226027725,50453,0,273,510,201,586,-19,0,0,65,0,0,0
24.802취,24802,0,0,0,0,0,0,0,0,0,0,3,0,0,25,1139912771,226027727,50434,0,221,413,200,695,-17,0,0,70,0,0,0
24.896취,24896,0,0,0,0,0,0,0,0,0,0,3,0,0,24,1139912778,226027728,50424,0,207,387,193,667,23,0,0,71,0,0,0
25.002취,25002,0,0,0,0,0,0,0,0,0,0,3,0,0,24,1139912784,226027730,50411,0,207,387,256,666,-16,0,0,74,0,0,0
25.084취,25084,0,0,0,0,0,0,0,0,0,0,3,0,0,25,1139912791,226027732,50411,0,206,387,199,739,-55,0,0,74,0,0,0
25.224취,25224,0,0,0,0,0,0,0,0,0,0,3,0,0,25,1139912798,226027734,50399,0,206,387,261,767,-18,0,0,73,0,0,0
25.3취,25300,0,0,0,0,0,0,0,0,0,0,3,0,0,25,1139912805,226027737,50363,0,206,387,281,777,-3,0,0,73,0,0,0
25.396취,25396,0,0,0,0,0,0,0,0,0,0,3,0,0,25,1139912813,226027739,50334,0,206,387,279,799,74,0,0,79,0,0,0
25.504취,25504,0,0,0,0,0,0,0,0,0,0,3,0,0,25,1139912820,226027741,50315,0,206,387,182,737,-16,0,0,79,0,0,0
25.602취,25602,0,0,0,0,0,0,0,0,0,0,3,0,0,25,1139912827,226027743,50275,0,206,387,333,801,89,0,0,81,0,0,0
25.684취,25684,0,0,0,0,0,0,0,0,0,0,3,0,0,26,1139912835,226027745,50256,0,206,387,166,798,4,0,0,85,0,0,0
25.784취,25784,0,0,0,0,0,0,0,0,0,0,3,0,0,25,1139912843,226027747,50237,0,206,388,250,741,65,0,0,85,0,0,0
25.88취,25880,0,0,0,0,0,0,0,0,0,0,3,0,0,25,1139912850,226027749,50212,0,206,388,283,786,94,0,0,88,0,0,0
25.984취,25984,0,0,0,0,0,0,0,0,0,0,3,0,0,25,1139912858,226027751,50197,0,206,388,268,888,-8,0,0,90,0,0,0
26.066취,26066,0,0,0,0,0,0,0,0,0,0,3,0,0,25,1139912866,226027753,50196,0,206,389,249,799,-14,0,0,91,0,0,0
26.182취,26182,0,0,0,0,0,0,0,0,0,0,3,0,0,26,1139912874,226027755,50167,0,206,389,239,792,-21,0,0,90,0,0,0
26.266취,26266,0,0,0,0,0,0,0,0,0,0,3,0,0,26,1139912882,226027757,50150,0,206,389,263,877,-32,0,0,91,0,0,0
26.362취,26362,0,0,0,0,0,0,0,0,0,0,3,0,0,27,1139912890,226027760,50108,0,206,389,292,836,11,0,0,94,0,0,0
26.464취,26464,0,0,0,0,0,0,0,0,0,0,3,0,0,27,1139912899,226027762,50104,0,206,389,316,908,-98,0,0,95,0,0,0
26.566취,26566,0,0,0,0,0,0,0,0,0,0,3,0,0,27,1139912908,226027764,50075,0,206,389,218,939,-106,0,0,97,0,0,0
26.666취,26666,0,0,0,0,0,0,0,0,0,0,3,0,0,25,1139912917,226027767,50059,0,206,390,293,898,-59,0,0,95,0,0,0
26.766취,26766,0,0,0,0,0,0,0,0,0,0,3,0,0,25,1139912925,226027769,50053,0,206,390,290,880,-42,0,0,93,0,0,0
26.864취,26864,0,0,0,0,0,0,0,0,0,0,3,0,0,26,1139912934,226027772,50054,0,206,390,267,924,-57,0,0,94,0,0,0
26.966취,26966,0,0,0,0,0,0,0,0,0,0,3,0,0,27,1139912943,226027774,50049,0,206,391,303,923,-60,0,0,93,0,0,0
27.066취,27066,0,0,0,0,0,0,0,0,0,0,3,0,0,26,1139912951,226027777,50022,0,206,391,273,870,12,0,0,92,0,0,0
27.188취,27188,0,0,0,0,0,0,0,0,0,0,3,0,0,26,1139912960,226027779,50017,0,206,391,293,953,-139,0,0,95,0,0,0
27.266취,27266,0,0,0,0,0,0,0,0,0,0,3,0,0,25,1139912969,226027781,49974,0,206,391,276,910,36,0,0,93,0,0,0
27.364취,27364,0,0,0,0,0,0,0,0,0,0,3,0,0,25,1139912978,226027784,49975,0,206,392,310,889,-137,0,0,98,0,0,0
27.464취,27464,0,0,0,0,0,0,0,0,0,0,3,0,0,26,1139912987,226027786,49987,0,206,392,266,928,-201,0,0,101,0,0,0
27.566취,27566,0,0,0,0,0,0,0,0,0,0,3,0,0,26,1139912996,226027789,49966,0,207,392,349,947,-83,0,0,97,0,0,0
27.666취,27666,0,0,0,0,0,0,0,0,0,0,3,0,0,25,1139913004,226027792,49944,0,207,393,320,933,71,0,0,89,0,0,0
27.764취,27764,0,0,0,0,0,0,0,0,0,0,3,0,0,26,1139913013,226027795,49935,0,207,393,256,810,78,0,0,91,0,0,0
27.866취,27866,0,0,0,0,0,0,0,0,0,0,3,0,0,27,1139913021,226027797,49914,0,207,394,331,957,67,0,0,93,0,0,0
27.966취,27966,0,0,0,0,0,0,0,0,0,0,3,0,0,25,1139913030,226027800,49880,0,207,394,284,929,79,0,0,92,0,0,0
28.066취,28066,0,0,0,0,0,0,0,0,0,0,3,0,0,24,1139913039,226027803,49850,0,207,394,357,936,19,0,0,97,0,0,0
28.184취,28184,0,0,0,0,0,0,0,0,0,0,3,0,0,23,1139913048,226027806,49823,0,207,394,368,936,162,0,0,94,0,0,0
28.264취,28264,0,0,0,0,0,0,0,0,0,0,3,0,0,24,1139913056,226027808,49824,0,207,395,230,932,-50,0,0,98,0,0,0
28.366취,28366,0,0,0,0,0,0,0,0,0,0,3,0,0,25,1139913065,226027810,49831,0,207,395,310,919,-83,0,0,101,0,0,0
28.466취,28466,0,0,0,0,0,0,0,0,0,0,3,0,0,25,1139913074,226027813,49807,0,207,395,375,862,86,0,0,98,0,0,0
28.566취,28566,0,0,0,0,0,0,0,0,0,0,3,0,0,26,1139913083,226027816,49797,0,207,396,300,973,-34,0,0,99,0,0,0
28.666취,28666,0,0,0,0,0,0,0,0,0,0,3,0,0,25,1139913092,226027819,49799,0,207,396,329,937,-79,0,0,102,0,0,0
28.764취,28764,0,0,0,0,0,0,0,0,0,0,3,0,0,25,1139913101,226027822,49779,0,208,397,347,878,38,0,0,99,0,0,0
28.866취,28866,0,0,0,0,0,0,0,0,0,0,3,0,0,27,1139913110,226027825,49786,0,223,426,310,989,-32,0,0,103,0,0,0
28.966취,28966,0,0,0,0,0,0,0,0,0,0,3,0,0,27,1139913119,226027827,49801,0,276,527,319,949,-54,0,0,108,0,0,0
29.066취,29066,0,0,0,0,0,0,0,0,0,0,3,0,0,25,1139913127,226027829,49811,0,307,587,295,890,-64,0,0,108,0,0,0
29.186취,29186,0,0,0,0,0,0,0,0,0,0,3,0,0,25,1139913135,226027832,49814,0,334,638,326,919,7,0,0,106,0,0,0
29.264취,29264,0,0,0,0,0,0,0,0,0,0,3,0,0,25,1139913144,226027835,49793,0,273,522,399,911,51,0,0,106,0,0,0
29.366취,29366,0,0,0,0,0,0,0,0,0,0,3,0,0,25,1139913153,226027839,49771,0,224,428,351,937,117,0,0,109,0,0,0
29.466취,29466,0,0,0,0,0,0,0,0,0,0,3,0,0,25,1139913162,226027842,49753,0,209,400,295,873,31,0,0,112,0,0,0
29.584취,29584,0,0,0,0,0,0,0,0,0,0,3,0,0,25,1139913170,226027845,49727,0,209,400,315,828,54,0,0,111,0,0,0
29.684취,29684,0,0,0,0,0,0,0,0,0,0,3,0,0,24,1139913178,226027848,49718,0,209,401,305,861,4,0,0,113,0,0,0
29.78취,29780,0,0,0,0,0,0,0,0,0,0,3,0,0,25,1139913187,226027850,49703,0,210,401,263,849,-17,0,0,112,0,0,0
29.884취,29884,0,0,0,0,0,0,0,0,0,0,3,0,0,26,1139913195,226027853,49692,0,210,402,366,901,-7,0,0,112,0,0,0
29.984취,29984,0,0,0,0,0,0,0,0,0,0,3,0,0,26,1139913203,226027856,49678,0,210,402,202,665,-44,0,0,112,0,0,0
30.086취,30086,0,0,0,0,0,0,0,0,0,0,3,0,0,26,1139913209,226027858,49653,0,210,403,285,659,-39,0,0,112,0,0,0
30.206취,30206,0,0,0,0,0,0,0,0,0,0,3,0,0,26,1139913215,226027860,49634,0,210,403,177,633,35,0,0,108,0,0,0
30.282취,30282,0,0,0,0,0,0,0,0,0,0,3,0,0,26,1139913221,226027862,49642,0,211,404,113,494,-160,0,0,119,0,0,0
30.386취,30386,0,0,0,0,0,0,0,0,0,0,3,0,0,26,1139913225,226027863,49629,0,211,404,113,436,-60,0,0,112,0,0,0
30.466취,30466,0,0,0,0,0,0,0,0,0,0,3,0,0,25,1139913229,226027865,49627,0,211,404,213,406,-62,0,0,111,0,0,0
30.566취,30566,0,0,0,0,0,0,0,0,0,0,3,0,0,26,1139913233,226027866,49621,0,211,405,50,385,-58,0,0,109,0,0,0
30.666취,30666,0,0,0,0,0,0,0,0,0,0,3,0,0,27,1139913237,226027867,49605,0,211,405,43,335,-25,0,0,104,0,0,0
30.764취,30764,0,0,0,0,0,0,0,0,0,0,3,0,0,26,1139913239,226027867,49593,0,211,406,47,248,2,0,0,101,0,0,0
30.866취,30866,0,0,0,0,0,0,0,0,0,0,3,0,0,27,1139913242,226027868,49581,0,212,406,37,313,41,0,0,97,0,0,0
30.966취,30966,0,0,0,0,0,0,0,0,0,0,3,0,0,27,1139913245,226027868,49566,0,212,406,56,254,32,0,0,95,0,0,0
31.066취,31066,0,0,0,0,0,0,0,0,0,0,3,0,0,27,1139913247,226027869,49535,0,212,407,87,221,108,0,0,102,0,0,0
31.188취,31188,0,0,0,0,0,0,0,0,0,0,3,0,0,27,1139913249,226027869,49526,0,212,407,3,140,32,0,0,90,0,0,0
31.284취,31284,0,0,0,0,0,0,0,0,0,0,3,0,0,26,1139913250,226027869,49518,0,212,407,2,103,-8,0,0,96,0,0,0
31.386취,31386,0,0,0,0,0,0,0,0,0,0,3,0,0,26,1139913251,226027870,49505,0,212,408,30,112,11,0,0,95,0,0,0
31.486취,31486,0,0,0,0,0,0,0,0,0,0,3,0,0,26,1139913252,226027870,49496,0,212,408,-35,19,10,0,0,65,0,0,0
31.586취,31586,0,0,0,0,0,0,0,0,0,0,3,0,0,26,1139913252,226027869,49478,0,212,408,-27,-39,109,0,0,138,0,0,0
31.686취,31686,0,0,0,0,0,0,0,0,0,0,3,0,0,26,1139913251,226027869,49468,0,212,409,-65,-152,22,0,0,93,0,0,0
31.786취,31786,0,0,0,0,0,0,0,0,0,0,3,0,0,26,1139913249,226027868,49452,0,212,409,-108,-272,35,0,0,94,0,0,0
31.89취,31890,0,0,0,0,0,0,0,0,0,0,3,0,0,26,1139913246,226027867,49446,0,212,409,-155,-292,13,0,0,95,0,0,0
31.988취,31988,0,0,0,0,0,0,0,0,0,0,3,0,0,26,1139913242,226027866,49446,0,212,410,-138,-491,7,0,0,94,0,0,0
32.09취,32090,0,0,0,0,0,0,0,0,0,0,3,0,0,26,1139913238,226027864,49437,0,212,410,-175,-456,-50,0,0,92,0,0,0
32.232취,32232,0,0,0,0,0,0,0,0,0,0,3,0,0,25,1139913233,226027863,49441,0,212,410,-206,-473,-52,0,0,92,0,0,0
32.308취,32308,0,0,0,0,0,0,0,0,0,0,3,0,0,25,1139913228,226027861,49430,0,212,411,-245,-584,-6,0,0,92,0,0,0
32.41취,32410,0,0,0,0,0,0,0,0,0,0,3,0,0,25,1139913223,226027859,49428,0,212,411,-182,-521,-75,0,0,90,0,0,0
32.51취,32510,0,0,0,0,0,0,0,0,0,0,3,0,0,25,1139913217,226027857,49432,0,212,411,-207,-610,-56,0,0,91,0,0,0
32.586취,32586,0,0,0,0,0,0,0,0,0,0,3,0,0,26,1139913210,226027855,49432,0,217,422,-207,-654,-12,0,0,94,0,0,0
32.664취,32664,0,0,0,0,0,0,0,0,0,0,3,0,0,25,1139913204,226027853,49422,0,212,412,-214,-585,-61,0,0,94,0,0,0
32.766취,32766,0,0,0,0,0,0,0,0,0,0,3,0,0,25,1139913198,226027851,49431,0,223,435,-269,-749,-31,0,0,93,0,0,0
32.866취,32866,0,0,0,0,0,0,0,0,0,0,3,0,0,26,1139913192,226027849,49420,0,246,480,-142,-587,120,0,0,99,0,0,0
32.966취,32966,0,0,0,0,0,0,0,0,0,0,3,0,0,27,1139913184,226027847,49409,0,212,414,-233,-875,118,0,0,99,0,0,0
33.066취,33066,0,0,0,0,0,0,0,0,0,0,3,0,0,27,1139913177,226027845,49404,0,212,414,-223,-730,34,0,0,100,0,0,0
33.184취,33184,0,0,0,0,0,0,0,0,0,0,3,0,0,27,1139913169,226027843,49390,0,212,415,-179,-741,56,0,0,101,0,0,0
33.266취,33266,0,0,0,0,0,0,0,0,0,0,3,0,0,27,1139913162,226027841,49400,0,212,416,-246,-816,-51,0,0,101,0,0,0
33.366취,33366,0,0,0,0,0,0,0,0,0,0,3,0,0,26,1139913154,226027839,49394,0,212,416,-212,-775,-32,0,0,100,0,0,0
33.466취,33466,0,0,0,0,0,0,0,0,0,0,3,0,0,27,1139913146,226027837,49400,0,212,417,-247,-787,-90,0,0,97,0,0,0
33.566취,33566,0,0,0,0,0,0,0,0,0,0,3,0,0,27,1139913138,226027834,49403,0,212,417,-248,-866,-153,0,0,101,0,0,0
33.664취,33664,0,0,0,0,0,0,0,0,0,0,3,0,0,26,1139913129,226027832,49393,0,212,418,-236,-851,-15,0,0,101,0,0,0
33.766취,33766,0,0,0,0,0,0,0,0,0,0,3,0,0,27,1139913121,226027830,49406,0,212,418,-203,-794,-54,0,0,100,0,0,0
33.866취,33866,0,0,0,0,0,0,0,0,0,0,3,0,0,25,1139913113,226027828,49381,0,212,419,-252,-896,60,0,0,100,0,0,0
33.966취,33966,0,0,0,0,0,0,0,0,0,0,3,0,0,25,1139913104,226027825,49388,0,212,419,-246,-874,-6,0,0,99,0,0,0
34.066취,34066,0,0,0,0,0,0,0,0,0,0,3,0,0,25,1139913096,226027823,49376,0,212,420,-209,-830,10,0,0,97,0,0,0
34.184취,34184,0,0,0,0,0,0,0,0,0,0,3,0,0,26,1139913087,226027821,49362,0,212,421,-314,-925,49,0,0,97,0,0,0
34.268취,34268,0,0,0,0,0,0,0,0,0,0,3,0,0,27,1139913078,226027818,49354,0,212,421,-240,-957,58,0,0,96,0,0,0
34.366취,34366,0,0,0,0,0,0,0,0,0,0,3,0,0,26,1139913069,226027816,49342,0,212,421,-261,-805,41,0,0,100,0,0,0
34.466취,34466,0,0,0,0,0,0,0,0,0,0,3,0,0,27,1139913060,226027813,49331,0,212,422,-244,-1009,17,0,0,95,0,0,0
34.566취,34566,0,0,0,0,0,0,0,0,0,0,3,0,0,25,1139913051,226027811,49313,0,212,422,-249,-873,14,0,0,96,0,0,0
34.664취,34664,0,0,0,0,0,0,0,0,0,0,3,0,0,26,1139913042,226027809,49310,0,212,422,-276,-926,-5,0,0,96,0,0,0
34.766취,34766,0,0,0,0,0,0,0,0,0,0,3,0,0,26,1139913033,226027807,49287,0,212,422,-201,-917,24,0,0,93,0,0,0
34.866취,34866,0,0,0,0,0,0,0,0,0,0,3,0,0,25,1139913025,226027805,49299,0,212,422,-266,-845,-125,0,0,93,0,0,0
34.966취,34966,0,0,0,0,0,0,0,0,0,0,3,0,0,24,1139913016,226027802,49286,0,212,423,-203,-858,7,0,0,93,0,0,0
35.066취,35066,0,0,0,0,0,0,0,0,0,0,3,0,0,25,1139913007,226027800,49268,0,212,423,-314,-982,22,0,0,96,0,0,0
35.18취,35180,0,0,0,0,0,0,0,0,0,0,3,0,0,24,1139912998,226027797,49279,0,212,423,-258,-843,-112,0,0,94,0,0,0
35.264취,35264,0,0,0,0,0,0,0,0,0,0,3,0,0,24,1139912989,226027795,49251,0,212,423,-239,-959,103,0,0,99,0,0,0
35.368취,35368,0,0,0,0,0,0,0,0,0,0,3,0,0,26,1139912979,226027792,49253,0,212,423,-253,-983,-26,0,0,96,0,0,0
35.466취,35466,0,0,0,0,0,0,0,0,0,0,3,0,0,26,1139912970,226027790,49237,0,212,423,-255,-850,26,0,0,92,0,0,0
35.566취,35566,0,0,0,0,0,0,0,0,0,0,3,0,0,26,1139912961,226027787,49230,0,212,423,-260,-917,41,0,0,93,0,0,0
35.662취,35662,0,0,0,0,0,0,0,0,0,0,3,0,0,25,1139912952,226027785,49227,0,212,424,-242,-938,-37,0,0,93,0,0,0
35.764취,35764,0,0,0,0,0,0,0,0,0,0,3,0,0,24,1139912943,226027783,49212,0,212,424,-226,-943,65,0,0,97,0,0,0
35.866취,35866,0,0,0,0,0,0,0,0,0,0,3,0,0,24,1139912933,226027780,49216,0,212,424,-248,-980,-44,0,0,95,0,0,0
35.968취,35968,0,0,0,0,0,0,0,0,0,0,3,0,0,25,1139912924,226027778,49202,0,212,424,-261,-939,52,0,0,99,0,0,0
36.068취,36068,0,0,0,0,0,0,0,0,0,0,3,0,0,25,1139912915,226027775,49209,0,212,425,-268,-901,-83,0,0,97,0,0,0
36.188취,36188,0,0,0,0,0,0,0,0,0,0,3,0,0,26,1139912905,226027772,49196,0,212,425,-313,-964,-14,0,0,99,0,0,0
36.266취,36266,0,0,0,0,0,0,0,0,0,0,3,0,0,27,1139912895,226027769,49187,0,224,449,-261,-931,62,0,0,100,0,0,0
36.366취,36366,0,0,0,0,0,0,0,0,0,0,3,0,0,26,1139912886,226027766,49169,0,254,509,-251,-878,94,0,0,102,0,0,0
36.464취,36464,0,0,0,0,0,0,0,0,0,0,3,0,0,24,1139912876,226027763,49166,0,270,541,-309,-1000,7,0,0,102,0,0,0
36.566취,36566,0,0,0,0,0,0,0,0,0,0,3,0,0,25,1139912867,226027759,49165,0,278,559,-244,-931,-16,0,0,98,0,0,0
36.664취,36664,0,0,0,0,0,0,0,0,0,0,3,0,0,26,1139912857,226027756,49168,0,308,620,-246,-907,54,0,0,100,0,0,0
36.766취,36766,0,0,0,0,0,0,0,0,0,0,3,0,0,27,1139912847,226027753,49186,0,318,640,-275,-889,-61,0,0,96,0,0,0
36.866취,36866,0,0,0,0,0,0,0,0,0,0,3,0,0,27,1139912837,226027750,49194,0,323,650,-274,-1009,5,0,0,97,0,0,0
36.968취,36968,0,0,0,0,0,0,0,0,0,0,3,0,0,26,1139912827,226027746,49193,0,322,649,-271,-904,65,0,0,100,0,0,0
37.068취,37068,0,0,0,0,0,0,0,0,0,0,3,0,0,26,1139912818,226027744,49189,0,260,525,-288,-939,-54,0,0,98,0,0,0
37.192취,37192,0,0,0,0,0,0,0,0,0,0,3,0,0,25,1139912809,226027741,49179,0,222,448,-292,-921,-3,0,0,100,0,0,0
37.27취,37270,0,0,0,0,0,0,0,0,0,0,3,0,0,26,1139912800,226027738,49184,0,213,429,-296,-933,-18,0,0,100,0,0,0
37.368취,37368,0,0,0,0,0,0,0,0,0,0,3,0,0,26,1139912790,226027735,49169,0,213,430,-280,-910,-6,0,0,102,0,0,0
37.468취,37468,0,0,0,0,0,0,0,0,0,0,3,0,0,26,1139912781,226027732,49179,0,213,430,-311,-947,-37,0,0,103,0,0,0
37.566취,37566,0,0,0,0,0,0,0,0,0,0,3,0,0,27,1139912772,226027729,49173,0,213,430,-231,-865,-59,0,0,98,0,0,0
37.668취,37668,0,0,0,0,0,0,0,0,0,0,3,0,0,25,1139912763,226027726,49150,0,213,430,-402,-1016,-54,0,0,102,0,0,0
37.77취,37770,0,0,0,0,0,0,0,0,0,0,3,0,0,27,1139912754,226027722,49131,0,213,430,-263,-886,-42,0,0,100,0,0,0
37.87취,37870,0,0,0,0,0,0,0,0,0,0,3,0,0,27,1139912744,226027719,49082,0,213,430,-316,-988,86,0,0,105,0,0,0
37.968취,37968,0,0,0,0,0,0,0,0,0,0,3,0,0,27,1139912735,226027716,49070,0,213,430,-259,-906,131,0,0,105,0,0,0
38.066취,38066,0,0,0,0,0,0,0,0,0,0,3,0,0,26,1139912726,226027713,49062,0,213,430,-317,-956,25,0,0,100,0,0,0
38.19취,38190,0,0,0,0,0,0,0,0,0,0,3,0,0,26,1139912716,226027710,49072,0,213,431,-331,-988,-18,0,0,99,0,0,0
38.268취,38268,0,0,0,0,0,0,0,0,0,0,3,0,0,25,1139912706,226027707,49071,0,214,431,-317,-1027,-40,0,0,103,0,0,0
38.368취,38368,0,0,0,0,0,0,0,0,0,0,3,0,0,26,1139912696,226027703,49047,0,214,431,-296,-976,-23,0,0,100,0,0,0
38.468취,38468,0,0,0,0,0,0,0,0,0,0,3,0,0,27,1139912687,226027700,49057,0,214,431,-262,-881,-50,0,0,97,0,0,0
38.566취,38566,0,0,0,0,0,0,0,0,0,0,3,0,0,27,1139912678,226027698,49058,0,214,431,-281,-951,-72,0,0,97,0,0,0
38.668취,38668,0,0,0,0,0,0,0,0,0,0,3,0,0,25,1139912669,226027694,49057,0,214,431,-347,-978,-62,0,0,97,0,0,0
38.77취,38770,0,0,0,0,0,0,0,0,0,0,3,0,0,26,1139912659,226027691,49057,0,214,431,-276,-975,-43,0,0,97,0,0,0
38.868취,38868,0,0,0,0,0,0,0,0,0,0,3,0,0,25,1139912650,226027688,49043,0,214,431,-339,-986,-65,0,0,95,0,0,0
38.968취,38968,0,0,0,0,0,0,0,0,0,0,3,0,0,26,1139912641,226027685,49005,0,214,431,-210,-904,61,0,0,98,0,0,0
39.066취,39066,0,0,0,0,0,0,0,0,0,0,3,0,0,25,1139912631,226027682,48997,0,214,431,-342,-1030,-4,0,0,98,0,0,0
39.188취,39188,0,0,0,0,0,0,0,0,0,0,3,0,0,26,1139912622,226027679,48987,0,214,431,-354,-972,1,0,0,97,0,0,0
39.268취,39268,0,0,0,0,0,0,0,0,0,0,3,0,0,27,1139912613,226027676,48980,0,214,431,-232,-910,52,0,0,95,0,0,0
39.368취,39368,0,0,0,0,0,0,0,0,0,0,3,0,0,27,1139912604,226027674,48954,0,214,431,-274,-937,150,0,0,96,0,0,0
39.466취,39466,0,0,0,0,0,0,0,0,0,0,3,0,0,25,1139912594,226027671,48954,0,214,431,-324,-986,12,0,0,92,0,0,0
39.566취,39566,0,0,0,0,0,0,0,0,0,0,3,0,0,27,1139912585,226027668,48965,0,214,431,-295,-953,-25,0,0,91,0,0,0
39.666취,39666,0,0,0,0,0,0,0,0,0,0,3,0,0,26,1139912576,226027665,48960,0,214,431,-244,-884,79,0,0,93,0,0,0
39.768취,39768,0,0,0,0,0,0,0,0,0,0,3,0,0,26,1139912568,226027662,48977,0,214,431,-300,-826,-96,0,0,93,0,0,0
39.868취,39868,0,0,0,0,0,0,0,0,0,0,3,0,0,26,1139912560,226027659,48972,0,214,431,-287,-820,-82,0,0,93,0,0,0
39.968취,39968,0,0,0,0,0,0,0,0,0,0,3,0,0,26,1139912552,226027657,48986,0,214,431,-157,-671,-30,0,0,94,0,0,0
40.066취,40066,0,0,0,0,0,0,0,0,0,0,3,0,0,26,1139912546,226027656,48985,0,214,431,-180,-575,87,0,0,98,0,0,0
40.192취,40192,0,0,0,0,0,0,0,0,0,0,3,0,0,27,1139912541,226027654,48982,0,214,431,-154,-513,2,0,0,94,0,0,0
40.268취,40268,0,0,0,0,0,0,0,0,0,0,3,0,0,27,1139912537,226027653,48979,0,214,431,-117,-433,-52,0,0,90,0,0,0
40.368취,40368,0,0,0,0,0,0,0,0,0,0,3,0,0,27,1139912533,226027652,48969,0,214,430,-21,-382,43,0,0,92,0,0,0
40.468취,40468,0,0,0,0,0,0,0,0,0,0,3,0,0,27,1139912529,226027652,48960,0,213,430,-81,-367,-4,0,0,90,0,0,0
40.566취,40566,0,0,0,0,0,0,0,0,0,0,3,0,0,27,1139912526,226027651,48988,0,213,430,-115,-367,-104,0,0,90,0,0,0
40.668취,40668,0,0,0,0,0,0,0,0,0,0,3,0,0,27,1139912523,226027650,48995,0,213,429,-73,-251,-140,0,0,95,0,0,0
40.768취,40768,0,0,0,0,0,0,0,0,0,0,3,0,0,26,1139912521,226027649,48985,0,213,429,-76,-245,16,0,0,91,0,0,0
40.868취,40868,0,0,0,0,0,0,0,0,0,0,3,0,0,26,1139912518,226027649,48976,0,213,428,-75,-285,47,0,0,94,0,0,0
40.968취,40968,0,0,0,0,0,0,0,0,0,0,3,0,0,27,1139912516,226027648,48976,0,213,427,-63,-217,39,0,0,92,0,0,0
41.066취,41066,0,0,0,0,0,0,0,0,0,0,3,0,0,27,1139912514,226027648,48959,0,213,427,-5,-171,45,0,0,93,0,0,0
41.194취,41194,0,0,0,0,0,0,0,0,0,0,3,0,0,27,1139912512,226027647,48955,0,213,427,-85,-223,38,0,0,88,0,0,0
41.268취,41268,0,0,0,0,0,0,0,0,0,0,3,0,0,26,1139912511,226027647,48954,0,213,427,-38,-100,-12,0,0,81,0,0,0
41.368취,41368,0,0,0,0,0,0,0,0,0,0,3,0,0,27,1139912510,226027646,48942,0,213,427,-145,-118,17,0,0,76,0,0,0
41.468취,41468,0,0,0,0,0,0,0,0,0,0,3,0,0,27,1139912509,226027645,48933,0,212,427,-181,-86,13,0,0,73,0,0,0
41.566취,41566,0,0,0,0,0,0,0,0,0,0,3,0,0,26,1139912509,226027643,48930,0,212,427,-278,-21,-27,0,0,65,0,0,0
41.702취,41702,0,0,0,0,0,0,0,0,0,0,3,0,0,26,1139912509,226027640,48919,0,212,427,-366,-5,-26,0,0,62,0,0,0
41.768취,41768,0,0,0,0,0,0,0,0,0,0,3,0,0,27,1139912509,226027636,48918,0,212,427,-470,27,-59,0,0,62,0,0,0
41.868취,41868,0,0,0,0,0,0,0,0,0,0,3,0,0,26,1139912510,226027631,48917,0,212,426,-548,-27,-49,0,0,61,0,0,0
41.968취,41968,0,0,0,0,0,0,0,0,0,0,3,0,0,27,1139912510,226027626,48905,0,212,426,-608,47,-35,0,0,65,0,0,0
42.066취,42066,0,0,0,0,0,0,0,0,0,0,3,0,0,27,1139912511,226027621,48887,0,212,426,-637,214,72,0,0,69,0,0,0
42.186취,42186,0,0,0,0,0,0,0,0,0,0,3,0,0,27,1139912513,226027615,48878,0,212,427,-593,124,26,0,0,72,0,0,0
42.268취,42268,0,0,0,0,0,0,0,0,0,0,3,0,0,27,1139912515,226027609,48881,0,212,427,-713,182,47,0,0,67,0,0,0
42.368취,42368,0,0,0,0,0,0,0,0,0,0,3,0,0,27,1139912516,226027603,48870,0,213,426,-760,105,77,0,0,69,0,0,0
42.468취,42468,0,0,0,0,0,0,0,0,0,0,3,0,0,27,1139912518,226027596,48874,0,213,426,-690,158,57,0,0,67,0,0,0
42.568취,42568,0,0,0,0,0,0,0,0,0,0,3,0,0,27,1139912521,226027590,48912,0,213,426,-781,301,-64,0,0,73,0,0,0
42.666취,42666,0,0,0,0,0,0,0,0,0,0,3,0,0,27,1139912524,226027583,48919,0,213,426,-674,177,2,0,0,74,0,0,0
42.768취,42768,0,0,0,0,0,0,0,0,0,0,3,0,0,27,1139912526,226027577,48933,0,213,426,-804,242,-17,0,0,78,0,0,0
42.866취,42866,0,0,0,0,0,0,0,0,0,0,3,0,0,27,1139912528,226027570,48944,0,213,426,-765,161,20,0,0,78,0,0,0
42.964취,42964,0,0,0,0,0,0,0,0,0,0,3,0,0,27,1139912530,226027563,48969,0,214,426,-790,113,38,0,0,79,0,0,0
43.066취,43066,0,0,0,0,0,0,0,0,0,0,3,0,0,27,1139912532,226027556,49005,0,214,426,-819,330,-35,0,0,79,0,0,0
43.188취,43188,0,0,0,0,0,0,0,0,0,0,3,0,0,27,1139912534,226027548,49017,0,214,426,-874,51,47,0,0,84,0,0,0
43.268취,43268,0,0,0,0,0,0,0,0,0,0,3,0,0,26,1139912537,226027540,49046,0,214,426,-823,312,-269,0,0,98,0,0,0
43.366취,43366,0,0,0,0,0,0,0,0,0,0,3,0,0,26,1139912540,226027532,49052,0,215,427,-965,242,-199,0,0,95,0,0,0
43.464취,43464,0,0,0,0,0,0,0,0,0,0,3,0,0,25,1139912542,226027524,49042,0,215,428,-850,265,-71,0,0,85,0,0,0
43.566취,43566,0,0,0,0,0,0,0,0,0,0,3,0,0,26,1139912545,226027516,49050,0,215,429,-914,145,-95,0,0,87,0,0,0
43.666취,43666,0,0,0,0,0,0,0,0,0,0,3,0,0,26,1139912547,226027509,49103,0,216,429,-897,317,-140,0,0,85,0,0,0
43.768취,43768,0,0,0,0,0,0,0,0,0,0,3,0,0,27,1139912549,226027501,49085,0,216,429,-811,216,174,0,0,77,0,0,0
43.866취,43866,0,0,0,0,0,0,0,0,0,0,3,0,0,26,1139912552,226027493,49115,0,216,429,-957,243,6,0,0,75,0,0,0
43.964취,43964,0,0,0,0,0,0,0,0,0,0,3,0,0,27,1139912554,226027485,49148,0,216,429,-863,184,62,0,0,74,0,0,0
44.066취,44066,0,0,0,0,0,0,0,0,0,0,3,0,0,26,1139912556,226027477,49154,0,216,429,-932,221,131,0,0,74,0,0,0
44.186취,44186,0,0,0,0,0,0,0,0,0,0,3,0,0,27,1139912559,226027469,49183,0,216,429,-798,337,152,0,0,74,0,0,0
44.266취,44266,0,0,0,0,0,0,0,0,0,0,3,0,0,26,1139912562,226027461,49185,0,216,430,-963,156,52,0,0,79,0,0,0
44.366취,44366,0,0,0,0,0,0,0,0,0,0,3,0,0,26,1139912563,226027453,49175,0,217,430,-953,115,54,0,0,79,0,0,0
44.464취,44464,0,0,0,0,0,0,0,0,0,0,3,0,0,26,1139912566,226027444,49166,0,217,431,-874,348,93,0,0,74,0,0,0
44.566취,44566,0,0,0,0,0,0,0,0,0,0,3,0,0,27,1139912569,226027436,49215,0,217,431,-980,144,-142,0,0,85,0,0,0
44.666취,44666,0,0,0,0,0,0,0,0,0,0,3,0,0,27,1139912571,226027427,49232,0,217,431,-910,191,-82,0,0,82,0,0,0
44.766취,44766,0,0,0,0,0,0,0,0,0,0,3,0,0,25,1139912573,226027419,49216,0,217,432,-878,224,80,0,0,76,0,0,0
44.866취,44866,0,0,0,0,0,0,0,0,0,0,3,0,0,26,1139912576,226027411,49225,0,218,432,-951,238,-32,0,0,78,0,0,0
44.964취,44964,0,0,0,0,0,0,0,0,0,0,3,0,0,26,1139912578,226027403,49207,0,218,433,-847,273,93,0,0,74,0,0,0
45.066취,45066,0,0,0,0,0,0,0,0,0,0,3,0,0,25,1139912581,226027395,49191,0,218,433,-838,149,18,0,0,79,0,0,0
45.188취,45188,0,0,0,0,0,0,0,0,0,0,3,0,0,26,1139912582,226027387,49195,0,218,434,-972,164,-51,0,0,81,0,0,0
45.266취,45266,0,0,0,0,0,0,0,0,0,0,3,0,0,27,1139912585,226027379,49202,0,218,434,-795,300,-99,0,0,83,0,0,0
45.366취,45366,0,0,0,0,0,0,0,0,0,0,3,0,0,25,1139912588,226027371,49192,0,219,435,-1016,188,35,0,0,83,0,0,0
45.462취,45462,0,0,0,0,0,0,0,0,0,0,3,0,0,27,1139912590,226027363,49249,0,219,435,-854,177,-21,0,0,84,0,0,0
45.566취,45566,0,0,0,0,0,0,0,0,0,0,3,0,0,27,1139912592,226027356,49260,0,219,436,-764,248,3,0,0,84,0,0,0
45.666취,45666,0,0,0,0,0,0,0,0,0,0,3,0,0,27,1139912594,226027349,49246,0,220,437,-797,150,111,0,0,86,0,0,0
45.766취,45766,0,0,0,0,0,0,0,0,0,0,3,0,0,27,1139912596,226027342,49264,0,220,438,-610,228,32,0,0,82,0,0,0
45.866취,45866,0,0,0,0,0,0,0,0,0,0,3,0,0,26,1139912598,226027337,49267,0,220,439,-521,195,85,0,0,86,0,0,0
45.964취,45964,0,0,0,0,0,0,0,0,0,0,3,0,0,26,1139912600,226027333,49306,0,221,439,-498,127,-67,0,0,97,0,0,0
46.066취,46066,0,0,0,0,0,0,0,0,0,0,3,0,0,26,1139912601,226027329,49333,0,221,440,-425,81,31,0,0,88,0,0,0
46.188취,46188,0,0,0,0,0,0,0,0,0,0,3,0,0,26,1139912602,226027326,49388,0,222,440,-343,81,-7,0,0,91,0,0,0
46.266취,46266,0,0,0,0,0,0,0,0,0,0,3,0,0,27,1139912603,226027323,49385,0,222,441,-323,74,12,0,0,85,0,0,0
46.366취,46366,0,0,0,0,0,0,0,0,0,0,3,0,0,26,1139912604,226027320,49364,0,222,442,-352,14,79,0,0,93,0,0,0
46.464취,46464,0,0,0,0,0,0,0,0,0,0,3,0,0,27,1139912605,226027317,49364,0,222,444,-305,-52,36,0,0,97,0,0,0
46.566취,46566,0,0,0,0,0,0,0,0,0,0,3,0,0,26,1139912605,226027315,49368,0,223,445,-188,-16,-21,0,0,95,0,0,0
46.666취,46666,0,0,0,0,0,0,0,0,0,0,3,0,0,26,1139912605,226027313,49373,0,223,446,-133,-56,-87,0,0,142,0,0,0
46.766취,46766,0,0,0,0,0,0,0,0,0,0,3,0,0,27,1139912605,226027313,49373,0,223,447,-18,-121,-81,0,0,141,0,0,0
46.866취,46866,0,0,0,0,0,0,0,0,0,0,3,0,0,26,1139912604,226027313,49376,0,223,448,73,-127,-78,0,0,117,0,0,0
46.966취,46966,0,0,0,0,0,0,0,0,0,0,3,0,0,27,1139912603,226027314,49395,0,223,449,162,-131,-109,0,0,108,0,0,0
47.068취,47068,0,0,0,0,0,0,0,0,0,0,3,0,0,27,1139912603,226027316,49410,0,223,450,284,-148,-208,0,0,116,0,0,0
47.192취,47192,0,0,0,0,0,0,0,0,0,0,3,0,0,27,1139912602,226027319,49396,0,223,451,384,-95,5,0,0,79,0,0,0
47.268취,47268,0,0,0,0,0,0,0,0,0,0,3,0,0,27,1139912600,226027323,49382,0,223,452,446,-287,57,0,0,88,0,0,0
47.366취,47366,0,0,0,0,0,0,0,0,0,0,3,0,0,27,1139912599,226027327,49385,0,223,453,519,-160,91,0,0,90,0,0,0
47.468취,47468,0,0,0,0,0,0,0,0,0,0,3,0,0,27,1139912598,226027332,49368,0,224,453,490,-140,150,0,0,102,0,0,0
47.568취,47568,0,0,0,0,0,0,0,0,0,0,3,0,0,27,1139912597,226027338,49367,0,224,454,690,-168,-44,0,0,81,0,0,0
47.668취,47668,0,0,0,0,0,0,0,0,0,0,3,0,0,27,1139912596,226027343,49358,0,224,455,534,-265,-12,0,0,85,0,0,0
47.768취,47768,0,0,0,0,0,0,0,0,0,0,3,0,0,27,1139912594,226027349,49331,0,224,456,578,-273,46,0,0,86,0,0,0
47.866취,47866,0,0,0,0,0,0,0,0,0,0,3,0,0,27,1139912593,226027355,49308,0,224,457,808,-159,208,0,0,103,0,0,0
47.968취,47968,0,0,0,0,0,0,0,0,0,0,3,0,0,27,1139912593,226027362,49299,0,224,457,619,-190,102,0,0,96,0,0,0
48.068취,48068,0,0,0,0,0,0,0,0,0,0,3,0,0,27,1139912591,226027368,49276,0,224,458,735,-314,68,0,0,90,0,0,0
48.194취,48194,0,0,0,0,0,0,0,0,0,0,3,0,0,26,1139912590,226027375,49269,0,224,459,776,-169,2,0,0,86,0,0,0
48.27취,48270,0,0,0,0,0,0,0,0,0,0,3,0,0,27,1139912589,226027382,49281,0,225,460,655,-370,-85,0,0,80,0,0,0
48.366취,48366,0,0,0,0,0,0,0,0,0,0,3,0,0,26,1139912587,226027389,49271,0,225,460,831,-134,-92,0,0,77,0,0,0
48.47취,48470,0,0,0,0,0,0,0,0,0,0,3,0,0,26,1139912586,226027396,49277,0,225,461,718,-328,-152,0,0,74,0,0,0
48.568취,48568,0,0,0,0,0,0,0,0,0,0,3,0,0,26,1139912583,226027403,49258,0,225,461,831,-210,0,0,0,71,0,0,0
48.668취,48668,0,0,0,0,0,0,0,0,0,0,3,0,0,26,1139912582,226027410,49281,0,224,461,745,-285,-23,0,0,68,0,0,0
48.768취,48768,0,0,0,0,0,0,0,0,0,0,3,0,0,27,1139912580,226027418,49286,0,224,461,829,-126,40,0,0,69,0,0,0
48.866취,48866,0,0,0,0,0,0,0,0,0,0,3,0,0,26,1139912579,226027426,49274,0,224,461,854,-231,-40,0,0,64,0,0,0
48.968취,48968,0,0,0,0,0,0,0,0,0,0,3,0,0,26,1139912577,226027433,49277,0,224,461,779,-348,-81,0,0,63,0,0,0
49.068취,49068,0,0,0,0,0,0,0,0,0,0,3,0,0,26,1139912576,226027441,49244,0,224,461,871,-116,101,0,0,69,0,0,0
49.19취,49190,0,0,0,0,0,0,0,0,0,0,3,0,0,27,1139912576,226027449,49262,0,224,461,907,-150,25,0,0,65,0,0,0
49.268취,49268,0,0,0,0,0,0,0,0,0,0,3,0,0,27,1139912574,226027457,49297,0,224,461,789,-412,-30,0,0,63,0,0,0
49.362취,49362,0,0,0,0,0,0,0,0,0,0,3,0,0,25,1139912571,226027464,49289,0,224,461,880,-277,-10,0,0,64,0,0,0
49.466취,49466,0,0,0,0,0,0,0,0,0,0,3,0,0,26,1139912568,226027472,49280,0,224,462,926,-252,37,0,0,70,0,0,0
49.566취,49566,0,0,0,0,0,0,0,0,0,0,3,0,0,26,1139912566,226027481,49267,0,224,462,864,-327,28,0,0,70,0,0,0
49.666취,49666,0,0,0,0,0,0,0,0,0,0,3,0,0,26,1139912563,226027488,49268,0,223,463,887,-284,12,0,0,71,0,0,0
49.766취,49766,0,0,0,0,0,0,0,0,0,0,3,0,0,26,1139912560,226027497,49314,0,223,463,955,-243,52,0,0,73,0,0,0
49.864취,49864,0,0,0,0,0,0,0,0,0,0,3,0,0,26,1139912558,226027505,49392,0,223,462,888,-232,-18,0,0,69,0,0,0
49.966취,49966,0,0,0,0,0,0,0,0,0,0,3,0,0,25,1139912556,226027514,49408,0,223,463,943,-228,-48,0,0,67,0,0,0
50.066취,50066,0,0,0,0,0,0,0,0,0,0,3,0,0,26,1139912553,226027522,49506,0,223,462,898,-263,68,0,0,70,0,0,0
50.19취,50190,0,0,0,0,0,0,0,0,0,0,3,0,0,27,1139912552,226027531,49608,0,223,462,957,-143,-63,0,0,65,0,0,0
50.266취,50266,0,0,0,0,0,0,0,0,0,0,3,0,0,26,1139912550,226027540,49679,0,224,464,888,-293,-32,0,0,62,0,0,0
50.364취,50364,0,0,0,0,0,0,0,0,0,0,3,0,0,26,1139912547,226027549,49764,0,223,462,924,-285,12,0,0,63,0,0,0
50.466취,50466,0,0,0,0,0,0,0,0,0,0,3,0,0,26,1139912546,226027557,49812,0,223,461,919,-236,-118,0,0,61,0,0,0
50.566취,50566,0,0,0,0,0,0,0,0,0,0,3,0,0,27,1139912544,226027566,49831,0,223,461,942,-187,17,0,0,61,0,0,0
50.666취,50666,0,0,0,0,0,0,0,0,0,0,3,0,0,26,1139912542,226027574,49928,0,222,461,897,-232,-134,0,0,61,0,0,0
50.768취,50768,0,0,0,0,0,0,0,0,0,0,3,0,0,27,1139912540,226027583,49997,0,222,460,910,-259,-25,0,0,57,0,0,0
50.864취,50864,0,0,0,0,0,0,0,0,0,0,3,0,0,26,1139912537,226027591,50071,0,222,460,959,-248,85,0,0,61,0,0,0
50.968취,50968,0,0,0,0,0,0,0,0,0,0,3,0,0,27,1139912535,226027600,50188,0,227,470,919,-238,-141,0,0,58,0,0,0
51.066취,51066,0,0,0,0,0,0,0,0,0,0,3,0,0,27,1139912533,226027609,50230,0,222,460,930,-234,64,0,0,59,0,0,0
51.188취,51188,0,0,0,0,0,0,0,0,0,0,3,0,0,26,1139912532,226027618,50264,0,221,458,961,-225,68,0,0,60,0,0,0
51.268취,51268,0,0,0,0,0,0,0,0,0,0,3,0,0,26,1139912530,226027627,50326,0,221,457,940,-195,-157,0,0,56,0,0,0
51.364취,51364,0,0,0,0,0,0,0,0,0,0,3,0,0,27,1139912528,226027636,50387,0,221,457,886,-255,58,0,0,57,0,0,0
51.466취,51466,0,0,0,0,0,0,0,0,0,0,3,0,0,25,1139912527,226027644,50389,0,221,457,947,-195,-113,0,0,53,0,0,0
51.566취,51566,0,0,0,0,0,0,0,0,0,0,3,0,0,26,1139912525,226027652,50369,0,221,457,943,-243,28,0,0,57,0,0,0
51.666취,51666,0,0,0,0,0,0,0,0,0,0,3,0,0,27,1139912523,226027661,50342,0,220,457,975,-269,146,0,0,67,0,0,0
51.766취,51766,0,0,0,0,0,0,0,0,0,0,3,0,0,26,1139912522,226027669,50334,0,220,457,748,-167,-20,0,0,54,0,0,0
51.866취,51866,0,0,0,0,0,0,0,0,0,0,3,0,0,27,1139912520,226027676,50417,0,220,456,814,-172,16,0,0,55,0,0,0
51.966취,51966,0,0,0,0,0,0,0,0,0,0,3,0,0,26,1139912519,226027684,50506,0,220,455,748,-150,-55,0,0,53,0,0,0
52.068취,52068,0,0,0,0,0,0,0,0,0,0,3,0,0,26,1139912518,226027690,50578,0,220,454,607,-146,9,0,0,55,0,0,0
52.19취,52190,0,0,0,0,0,0,0,0,0,0,3,0,0,26,1139912517,226027695,50632,0,220,454,496,-91,80,0,0,64,0,0,0
52.268취,52268,0,0,0,0,0,0,0,0,0,0,3,0,0,26,1139912517,226027700,50674,0,219,453,488,-81,115,0,0,67,0,0,0
52.368취,52368,0,0,0,0,0,0,0,0,0,0,3,0,0,26,1139912517,226027705,50714,0,219,452,418,-28,83,0,0,65,0,0,0
52.468취,52468,0,0,0,0,0,0,0,0,0,0,3,0,0,26,1139912518,226027709,50778,0,219,451,330,-34,4,0,0,55,0,0,0
52.568취,52568,0,0,0,0,0,0,0,0,0,0,3,0,0,26,1139912518,226027712,50765,0,219,451,313,-51,-32,0,0,50,0,0,0
52.668취,52668,0,0,0,0,0,0,0,0,0,0,3,0,0,26,1139912519,226027715,50751,0,218,451,302,5,-15,0,0,54,0,0,0
52.766취,52766,0,0,0,0,0,0,0,0,0,0,3,0,0,27,1139912519,226027718,50740,0,218,450,291,-8,23,0,0,54,0,0,0
52.868취,52868,0,0,0,0,0,0,0,0,0,0,3,0,0,27,1139912520,226027720,50756,0,218,449,275,13,114,0,0,72,0,0,0
52.972취,52972,0,0,0,0,0,0,0,0,0,0,3,0,0,27,1139912521,226027723,50770,0,218,449,214,-13,62,0,0,62,0,0,0
53.068취,53068,0,0,0,0,0,0,0,0,0,0,3,0,0,27,1139912521,226027725,50800,0,217,448,163,4,-8,0,0,51,0,0,0
53.192취,53192,0,0,0,0,0,0,0,0,0,0,3,0,0,27,1139912522,226027726,50810,0,217,447,134,36,-46,0,0,64,0,0,0
53.266취,53266,0,0,0,0,0,0,0,0,0,0,3,0,0,27,1139912523,226027727,50822,0,217,447,114,-37,-22,0,0,44,0,0,0
53.368취,53368,0,0,0,0,0,0,0,0,0,0,3,0,0,27,1139912524,226027729,50827,0,217,446,138,56,-14,0,0,62,0,0,0
53.468취,53468,0,0,0,0,0,0,0,0,0,0,3,0,0,26,1139912525,226027730,50821,0,216,445,40,-17,-7,0,0,45,0,0,0
53.568취,53568,0,0,0,0,0,0,0,0,0,0,3,0,0,27,1139912526,226027730,50817,0,216,445,5,-70,23,0,0,80,0,0,0
53.668취,53668,0,0,0,0,0,0,0,0,0,0,3,0,0,27,1139912526,226027730,50812,0,216,444,12,-32,26,0,0,90,0,0,0
53.766취,53766,0,0,0,0,0,0,0,0,0,0,3,0,0,27,1139912527,226027730,50808,0,215,443,39,-39,1,0,0,49,0,0,0
53.868취,53868,0,0,0,0,0,0,0,0,0,0,3,0,0,27,1139912527,226027731,50804,0,215,442,-2,-24,-35,0,0,82,0,0,0
53.968취,53968,0,0,0,0,0,0,0,0,0,0,3,0,0,27,1139912528,226027731,50809,0,215,442,44,-5,-67,0,0,84,0,0,0
54.068취,54068,0,0,0,0,0,0,0,0,0,0,3,0,0,26,1139912528,226027731,50807,0,215,441,27,-6,-30,0,0,77,0,0,0
54.188취,54188,0,0,0,0,0,0,0,0,0,0,3,0,0,26,1139912529,226027732,50805,0,215,440,71,32,-5,0,0,63,0,0,0
54.266취,54266,0,0,0,0,0,0,0,0,0,0,3,0,0,27,1139912530,226027732,50801,0,214,440,93,38,27,0,0,65,0,0,0
54.368취,54368,0,0,0,0,0,0,0,0,0,0,3,0,0,27,1139912531,226027733,50800,0,214,439,76,79,-24,0,0,75,0,0,0
54.468취,54468,0,0,0,0,0,0,0,0,0,0,3,0,0,27,1139912532,226027734,50805,0,214,438,46,54,-22,0,0,76,0,0,0
54.568취,54568,0,0,0,0,0,0,0,0,0,0,3,0,0,27,1139912533,226027734,50808,0,214,437,57,103,-25,0,0,77,0,0,0
54.668취,54668,0,0,0,0,0,0,0,0,0,0,3,0,0,27,1139912534,226027735,50802,0,214,437,81,114,-2,0,0,70,0,0,0
54.764취,54764,0,0,0,0,0,0,0,0,0,0,3,0,0,27,1139912536,226027736,50804,0,213,436,96,116,-31,0,0,72,0,0,0
54.868취,54868,0,0,0,0,0,0,0,0,0,0,3,0,0,27,1139912538,226027737,50795,0,213,435,95,195,67,0,0,67,0,0,0
54.968취,54968,0,0,0,0,0,0,0,0,0,0,3,0,0,27,1139912540,226027738,50794,0,213,434,107,176,-2,0,0,70,0,0,0
55.068취,55068,0,0,0,0,0,0,0,0,0,0,3,0,0,26,1139912543,226027739,50785,0,213,433,155,297,64,0,0,69,0,0,0
55.19취,55190,0,0,0,0,0,0,0,0,0,0,3,0,0,27,1139912546,226027740,50766,0,212,432,138,204,30,0,0,71,0,0,0
55.266취,55266,0,0,0,0,0,0,0,0,0,0,3,0,0,26,1139912550,226027742,50765,0,212,432,166,326,-111,0,0,79,0,0,0
55.366취,55366,0,0,0,0,0,0,0,0,0,0,3,0,0,26,1139912553,226027743,50753,0,212,431,113,320,-68,0,0,76,0,0,0
55.468취,55468,0,0,0,0,0,0,0,0,0,0,3,0,0,27,1139912557,226027744,50741,0,212,431,153,379,-34,0,0,73,0,0,0
55.568취,55568,0,0,0,0,0,0,0,0,0,0,3,0,0,26,1139912562,226027746,50720,0,211,430,240,498,6,0,0,72,0,0,0
55.668취,55668,0,0,0,0,0,0,0,0,0,0,3,0,0,26,1139912567,226027748,50711,0,211,429,182,390,-9,0,0,73,0,0,0
55.766취,55766,0,0,0,0,0,0,0,0,0,0,3,0,0,27,1139912571,226027749,50705,0,211,428,160,478,-85,0,0,74,0,0,0
55.866취,55866,0,0,0,0,0,0,0,0,0,0,3,0,0,27,1139912577,226027751,50688,0,211,428,218,526,-14,0,0,73,0,0,0
55.966취,55966,0,0,0,0,0,0,0,0,0,0,3,0,0,27,1139912582,226027753,50662,0,210,428,157,462,76,0,0,72,0,0,0
56.066취,56066,0,0,0,0,0,0,0,0,0,0,3,0,0,27,1139912587,226027754,50639,0,210,427,156,484,76,0,0,75,0,0,0
56.188취,56188,0,0,0,0,0,0,0,0,0,0,3,0,0,27,1139912592,226027756,50628,0,210,427,243,543,74,0,0,75,0,0,0
56.266취,56266,0,0,0,0,0,0,0,0,0,0,3,0,0,27,1139912597,226027758,50632,0,210,426,141,500,-67,0,0,78,0,0,0
56.368취,56368,0,0,0,0,0,0,0,0,0,0,3,0,0,27,1139912603,226027759,50619,0,210,425,201,559,-29,0,0,77,0,0,0
56.466취,56466,0,0,0,0,0,0,0,0,0,0,3,0,0,27,1139912608,226027761,50596,0,209,424,221,575,-9,0,0,78,0,0,0
56.566취,56566,0,0,0,0,0,0,0,0,0,0,3,0,0,27,1139912613,226027763,50581,0,209,424,213,486,64,0,0,75,0,0,0
56.666취,56666,0,0,0,0,0,0,0,0,0,0,3,0,0,27,1139912619,226027765,50574,0,209,423,241,521,-28,0,0,77,0,0,0
56.766취,56766,0,0,0,0,0,0,0,0,0,0,3,0,0,27,1139912624,226027766,50576,0,209,423,179,625,-65,0,0,79,0,0,0
56.866취,56866,0,0,0,0,0,0,0,0,0,0,3,0,0,27,1139912630,226027768,50565,0,209,422,178,550,-12,0,0,76,0,0,0
56.966취,56966,0,0,0,0,0,0,0,0,0,0,3,0,0,26,1139912636,226027770,50556,0,208,422,227,589,28,0,0,76,0,0,0
57.066취,57066,0,0,0,0,0,0,0,0,0,0,3,0,0,26,1139912642,226027771,50554,0,208,422,164,564,-12,0,0,79,0,0,0
57.182취,57182,0,0,0,0,0,0,0,0,0,0,3,0,0,26,1139912647,226027773,50545,0,208,422,166,532,14,0,0,79,0,0,0
57.266취,57266,0,0,0,0,0,0,0,0,0,0,3,0,0,26,1139912653,226027774,50531,0,208,421,246,592,45,0,0,85,0,0,0
57.366취,57366,0,0,0,0,0,0,0,0,0,0,3,0,0,26,1139912659,226027776,50530,0,208,422,205,626,-65,0,0,88,0,0,0
57.468취,57468,0,0,0,0,0,0,0,0,0,0,3,0,0,26,1139912665,226027778,50512,0,208,422,209,598,64,0,0,84,0,0,0
57.568취,57568,0,0,0,0,0,0,0,0,0,0,3,0,0,26,1139912671,226027780,50498,0,208,422,238,647,80,0,0,85,0,0,0
57.664취,57664,0,0,0,0,0,0,0,0,0,0,3,0,0,26,1139912676,226027781,50504,0,208,422,176,504,-90,0,0,90,0,0,0
57.766취,57766,0,0,0,0,0,0,0,0,0,0,3,0,0,27,1139912682,226027783,50484,0,207,422,178,607,98,0,0,88,0,0,0
