time,timestamp,stick_yaw,stick_throttle,stick_roll,stick_pitch,mode,cmd_1,cmd_2
0취,0,0,-1,-0.007999957,-0.005999982,5,1002,0
0.056취,56,0,-1,-0.007999957,-0.005999982,5,1002,0
0.108취,108,0,-1,-0.007999957,-0.003999949,5,0,0
0.16취,160,0,-1,-0.007999957,-0.003999949,5,0,0
0.212취,212,0,-1,-0.009999931,-0.003999949,5,0,0
0.26취,260,0,-1,-0.007999957,-0.003999949,5,0,0
0.312취,312,0,-1,-0.007999957,-0.003999949,5,0,0
0.36취,360,0,-1,-0.009999931,-0.005999982,5,0,0
0.412취,412,0,-1,-0.009999931,-0.005999982,5,0,0
0.46취,460,0,-1,-0.009999931,-0.003999949,5,0,0
0.512취,512,0,-1,-0.009999931,-0.005999982,5,0,0
0.56취,560,0,-1,-0.007999957,-0.005999982,5,0,0
0.616취,616,0,-1,-0.009999931,-0.005999982,5,0,0
0.668취,668,0,-1,-0.009999931,-0.003999949,5,0,0
0.716취,716,0,-1,-0.009999931,-0.005999982,5,0,0
0.768취,768,0,-1,-0.009999931,-0.003999949,5,0,0
0.816취,816,0,-1,-0.007999957,-0.005999982,5,0,0
0.868취,868,0,-1,-0.007999957,-0.005999982,5,0,0
0.924취,924,0,-1,-0.007999957,-0.003999949,5,0,0
0.972취,972,0,-1,-0.007999957,-0.003999949,5,0,0
1.024취,1024,0,-1,-0.007999957,-0.003999949,5,0,0
1.072취,1072,0,-1,-0.007999957,-0.005999982,5,0,0
1.124취,1124,0,-1,-0.007999957,-0.003999949,5,0,0
1.176취,1176,0,-1,-0.009999931,-0.003999949,5,0,0
1.224취,1224,0,-1,-0.007999957,-0.003999949,5,0,0
1.276취,1276,0,-1,-0.007999957,-0.005999982,5,0,0
1.324취,1324,0,-1,-0.009999931,-0.003999949,5,0,0
1.376취,1376,0,-1,-0.009999931,-0.003999949,5,0,0
1.428취,1428,0,-1,-0.009999931,-0.005999982,5,0,0
1.48취,1480,0,-1,-0.007999957,-0.005999982,5,0,0
1.528취,1528,0,-1,-0.007999957,-0.005999982,5,0,0
1.58취,1580,0,-1,-0.009999931,-0.003999949,5,0,0
1.632취,1632,0,-1,-0.007999957,-0.003999949,5,0,0
1.684취,1684,0,-1,-0.009999931,-0.005999982,5,0,0
1.736취,1736,0,-1,-0.007999957,-0.005999982,5,0,0
1.788취,1788,0,-1,-0.007999957,-0.005999982,5,0,0
1.836취,1836,0,-1,-0.007999957,-0.005999982,5,0,0
1.888취,1888,0,-1,-0.007999957,-0.003999949,5,0,0
1.936취,1936,0,-1,-0.009999931,-0.003999949,5,0,0
1.988취,1988,0,-1,-0.007999957,-0.003999949,5,0,0
2.04취,2040,0,-1,-0.009999931,-0.005999982,5,0,0
2.088취,2088,0,-1,-0.009999931,-0.003999949,5,0,0
2.14취,2140,0,-1,-0.009999931,-0.005999982,5,0,0
2.192취,2192,0,-1,-0.007999957,-0.005999982,5,0,0
2.244취,2244,0,-1,-0.007999957,-0.003999949,5,0,0
2.292취,2292,0,-1,-0.009999931,-0.005999982,5,0,0
2.344취,2344,0,-1,-0.009999931,-0.003999949,5,0,0
2.392취,2392,0,-1,-0.009999931,-0.005999982,5,0,0
2.444취,2444,0,-1,-0.009999931,-0.005999982,5,0,0
2.5취,2500,0,-1,-0.007999957,-0.003999949,5,0,0
2.548취,2548,0,-1,-0.007999957,-0.003999949,5,0,0
2.6취,2600,0,-1,-0.009999931,-0.003999949,5,0,0
2.648취,2648,0,-1,-0.009999931,-0.003999949,5,0,0
2.7취,2700,0,-1,-0.009999931,-0.003999949,5,0,0
2.752취,2752,0,-1,-0.007999957,-0.003999949,5,0,0
2.8취,2800,0,-1,-0.009999931,-0.005999982,5,0,0
2.852취,2852,0,-1,-0.009999931,-0.005999982,5,0,0
2.9취,2900,0,-1,-0.009999931,-0.003999949,5,0,0
2.952취,2952,0,-1,-0.009999931,-0.003999949,5,0,0
3.004취,3004,0,-1,-0.009999931,-0.005999982,5,0,0
3.06취,3060,0,-1,-0.007999957,-0.003999949,5,0,0
3.108취,3108,0,-1,-0.007999957,-0.005999982,5,0,0
3.16취,3160,0,-1,-0.009999931,-0.005999982,5,0,0
3.208취,3208,0,-1,-0.007999957,-0.005999982,5,0,0
3.26취,3260,0,-1,-0.009999931,-0.005999982,5,0,0
3.312취,3312,0,-1,-0.009999931,-0.005999982,5,0,0
3.364취,3364,0,-1,-0.007999957,-0.005999982,5,0,0
3.412취,3412,0,-1,-0.007999957,-0.003999949,5,0,0
3.464취,3464,0,-1,-0.009999931,-0.003999949,5,0,0
3.512취,3512,0,-1,-0.009999931,-0.005999982,5,0,0
3.564취,3564,0,-1,-0.009999931,-0.003999949,5,0,0
3.616취,3616,0,-1,-0.009999931,-0.003999949,5,0,0
3.664취,3664,0,-1,-0.007999957,-0.003999949,5,0,0
3.716취,3716,0,-1,-0.009999931,-0.003999949,5,0,0
3.768취,3768,0,-1,-0.009999931,-0.003999949,5,0,0
3.82취,3820,0,-1,-0.007999957,-0.005999982,5,0,0
3.868취,3868,0,-1,-0.009999931,-0.003999949,5,0,0
3.92취,3920,0,-1,-0.009999931,-0.003999949,5,0,0
3.968취,3968,0,-1,-0.009999931,-0.005999982,5,0,0
4.02취,4020,0,-1,-0.009999931,-0.005999982,5,0,0
4.076취,4076,0,-1,-0.009999931,-0.005999982,5,0,0
4.124취,4124,0,-1,-0.009999931,-0.003999949,5,0,0
4.176취,4176,0,-1,-0.007999957,-0.003999949,5,0,0
4.224취,4224,0,-1,-0.007999957,-0.003999949,5,0,0
4.276취,4276,0,-1,-0.007999957,-0.003999949,5,0,0
4.328취,4328,0,-1,-0.009999931,-0.003999949,5,0,0
4.376취,4376,0,-1,-0.007999957,-0.003999949,5,0,0
4.428취,4428,0,-1,-0.007999957,-0.005999982,5,0,0
4.476취,4476,0,-1,-0.009999931,-0.003999949,5,0,0
4.528취,4528,0,-1,-0.009999931,-0.003999949,5,0,0
4.58취,4580,0,-1,-0.009999931,-0.003999949,5,0,0
4.636취,4636,0,-1,-0.009999931,-0.003999949,5,0,0
4.684취,4684,0,-1,-0.009999931,-0.005999982,5,0,0
4.736취,4736,0,-1,-0.009999931,-0.005999982,5,0,0
4.784취,4784,0,-1,-0.007999957,-0.005999982,5,0,0
4.836취,4836,0,-1,-0.009999931,-0.005999982,5,0,0
4.888취,4888,0,-1,-0.007999957,-0.005999982,5,0,0
4.94취,4940,0,-1,-0.009999931,-0.005999982,5,0,0
4.988취,4988,0,-1,-0.007999957,-0.005999982,5,0,0
5.04취,5040,0,-1,-0.009999931,-0.005999982,5,0,0
5.088취,5088,0,-1,-0.009999931,-0.003999949,5,0,0
5.14취,5140,0,-1,-0.007999957,-0.005999982,5,0,0
5.192취,5192,0,-1,-0.009999931,-0.003999949,5,0,0
5.24취,5240,0,-1,-0.007999957,-0.005999982,5,0,0
5.292취,5292,0,-1,-0.009999931,-0.005999982,5,0,0
5.344취,5344,0,-1,-0.007999957,-0.005999982,5,0,0
5.396취,5396,0,-1,-0.007999957,-0.003999949,5,0,0
5.444취,5444,0,-1,-0.007999957,-0.003999949,5,0,0
5.496취,5496,0,-1,-0.007999957,-0.005999982,5,0,0
5.544취,5544,0,-1,-0.007999957,-0.005999982,5,0,0
5.596취,5596,0,-1,-0.007999957,-0.005999982,5,0,0
5.644취,5644,0,-1,-0.009999931,-0.005999982,5,0,0
5.696취,5696,0,-1,-0.007999957,-0.003999949,5,0,0
5.744취,5744,0,-1,-0.009999931,-0.003999949,5,0,0
5.796취,5796,0,-1,-0.009999931,-0.003999949,5,0,0
5.852취,5852,0,-1,-0.007999957,-0.005999982,5,0,0
5.904취,5904,0,-1,-0.009999931,-0.005999982,5,0,0
5.952취,5952,0,-1,-0.007999957,-0.003999949,5,0,0
6.004취,6004,0,-1,-0.009999931,-0.005999982,5,0,0
6.052취,6052,0,-1,-0.009999931,-0.003999949,5,0,0
6.104취,6104,0,-1,-0.007999957,-0.003999949,5,0,0
6.156취,6156,0,-1,-0.009999931,-0.005999982,5,0,0
6.212취,6212,0,-1,-0.007999957,-0.003999949,5,0,0
6.26취,6260,0,-1,-0.009999931,-0.003999949,5,0,0
6.312취,6312,0,-1,-0.009999931,-0.003999949,5,0,0
6.36취,6360,0,-1,-0.007999957,-0.005999982,5,0,0
6.412취,6412,0,-1,-0.007999957,-0.003999949,5,0,0
6.46취,6460,0,-1,-0.009999931,-0.005999982,5,0,0
6.512취,6512,0,-1,-0.009999931,-0.005999982,5,0,0
6.56취,6560,0,-1,-0.009999931,-0.005999982,5,0,0
6.612취,6612,0,-1,-0.007999957,-0.003999949,5,0,0
6.664취,6664,0,-1,-0.007999957,-0.003999949,5,0,0
6.72취,6720,0,-1,-0.009999931,-0.005999982,5,0,0
6.768취,6768,0,-1,-0.007999957,-0.005999982,5,0,0
6.82취,6820,0,-1,-0.009999931,-0.005999982,5,0,0
6.868취,6868,0,-1,-0.009999931,-0.005999982,5,0,0
6.92취,6920,0,-1,-0.009999931,-0.005999982,5,0,0
6.972취,6972,0,-1,-0.007999957,-0.003999949,5,0,0
7.024취,7024,0,-1,-0.009999931,-0.003999949,5,0,0
7.072취,7072,0,-1,-0.007999957,-0.005999982,5,0,0
7.124취,7124,0,-1,-0.009999931,-0.005999982,5,0,0
7.172취,7172,0,-1,-0.007999957,-0.003999949,5,0,0
7.228취,7228,0,-1,-0.007999957,-0.005999982,5,0,0
7.276취,7276,0,-1,-0.007999957,-0.003999949,5,0,0
7.328취,7328,0,-1,-0.009999931,-0.005999982,5,0,0
7.376취,7376,0,-1,-0.007999957,-0.003999949,5,0,0
7.428취,7428,0,-1,-0.009999931,-0.003999949,5,0,0
7.48취,7480,0,-1,-0.009999931,-0.003999949,5,0,0
7.532취,7532,0,-1,-0.009999931,-0.005999982,5,0,0
7.58취,7580,0,-1,-0.009999931,-0.003999949,5,0,0
7.632취,7632,0,-1,-0.007999957,-0.005999982,5,0,0
7.68취,7680,0,-1,-0.009999931,-0.005999982,5,0,0
7.736취,7736,0,-1,-0.009999931,-0.005999982,5,0,0
7.784취,7784,0,-1,-0.009999931,-0.005999982,5,0,0
7.836취,7836,0,-1,-0.009999931,-0.005999982,5,0,0
7.884취,7884,0,-1,-0.009999931,-0.005999982,5,0,0
7.936취,7936,0,-1,-0.009999931,-0.005999982,5,0,0
7.988취,7988,0,-1,-0.009999931,-0.003999949,5,0,0
8.036취,8036,0,-1,-0.009999931,-0.005999982,5,0,0
8.088취,8088,0,-1,-0.007999957,-0.003999949,5,0,0
8.136취,8136,0,-1,-0.009999931,-0.005999982,5,0,0
8.188취,8188,0,-1,-0.009999931,-0.005999982,5,0,0
8.24취,8240,0,-1,-0.009999931,-0.005999982,5,0,0
8.296취,8296,0,-1,-0.009999931,-0.005999982,5,0,0
8.344취,8344,0,-1,-0.009999931,-0.003999949,5,0,0
8.396취,8396,0,-1,-0.009999931,-0.005999982,5,0,0
8.444취,8444,0,-1,-0.009999931,-0.003999949,5,0,0
8.496취,8496,0,-1,-0.009999931,-0.003999949,5,0,0
8.548취,8548,0,-1,-0.009999931,-0.003999949,5,0,0
8.6취,8600,0,-1,-0.009999931,-0.005999982,5,0,0
8.648취,8648,0,-1,-0.009999931,-0.005999982,5,0,0
8.7취,8700,0,-1,-0.009999931,-0.003999949,5,0,0
8.748취,8748,0,-1,-0.009999931,-0.005999982,5,0,0
8.804취,8804,0,-1,-0.009999931,-0.005999982,5,0,0
8.852취,8852,0,-1,-0.009999931,-0.003999949,5,0,0
8.904취,8904,0,-1,-0.009999931,-0.005999982,5,0,0
8.952취,8952,0,-1,-0.009999931,-0.005999982,5,0,0
9.004취,9004,0,-1,-0.009999931,-0.005999982,5,0,0
9.056취,9056,0,-1,-0.009999931,-0.005999982,5,0,0
9.108취,9108,0,-1,-0.009999931,-0.005999982,5,0,0
9.156취,9156,0,-1,-0.009999931,-0.005999982,5,0,0
9.208취,9208,0,-1,-0.009999931,-0.005999982,5,0,0
9.256취,9256,0,-1,-0.009999931,-0.003999949,5,0,0
9.312취,9312,0,-1,-0.009999931,-0.005999982,5,0,0
9.36취,9360,0,-1,-0.009999931,-0.005999982,5,0,0
9.412취,9412,0,-1,-0.009999931,-0.005999982,5,0,0
9.46취,9460,0,-1,-0.009999931,-0.005999982,5,0,0
9.512취,9512,0,-1,-0.009999931,-0.005999982,5,0,0
9.564취,9564,0,-1,-0.009999931,-0.005999982,5,0,0
9.616취,9616,0,-1,-0.009999931,-0.005999982,5,0,0
9.668취,9668,0,-1,-0.009999931,-0.005999982,5,0,0
9.716취,9716,0.002000093,-1,-0.007999957,-0.005999982,5,0,0
9.768취,9768,0.002000093,-1,-0.009999931,-0.005999982,5,0,0
9.816취,9816,0,-1,-0.009999931,-0.003999949,5,0,0
9.872취,9872,0,-1,-0.009999931,-0.003999949,5,0,0
9.92취,9920,0,-1,-0.007999957,-0.005999982,5,0,0
9.972취,9972,0,-1,-0.009999931,-0.005999982,5,0,0
10.02취,10020,0,-1,-0.009999931,-0.005999982,5,0,0
10.072취,10072,0,-1,-0.009999931,-0.003999949,5,0,0
10.124취,10124,0,-1,-0.009999931,-0.005999982,5,0,0
10.176취,10176,0,-1,-0.009999931,-0.003999949,5,0,0
10.224취,10224,0,-1,-0.009999931,-0.005999982,5,0,0
10.276취,10276,0,-1,-0.009999931,-0.005999982,5,0,0
10.324취,10324,0,-1,-0.009999931,-0.003999949,5,0,0
10.38취,10380,0,-1,-0.009999931,-0.005999982,5,0,0
10.428취,10428,0,-1,-0.009999931,-0.005999982,5,0,0
10.48취,10480,0,-1,-0.009999931,-0.005999982,5,0,0
10.528취,10528,0,-1,-0.009999931,-0.003999949,5,0,0
10.58취,10580,0.002000093,-1,-0.009999931,-0.005999982,5,0,0
10.632취,10632,0,-1,-0.009999931,-0.005999982,5,0,0
10.684취,10684,0,-1,-0.009999931,-0.005999982,5,0,0
10.732취,10732,0,-1,-0.009999931,-0.005999982,5,0,0
10.784취,10784,0,-1,-0.009999931,-0.005999982,5,0,0
10.832취,10832,0.002000093,-1,-0.009999931,-0.005999982,5,0,0
10.884취,10884,0,-1,-0.009999931,-0.005999982,5,0,0
10.932취,10932,0,-1,-0.009999931,-0.005999982,5,0,0
10.984취,10984,0,-1,-0.009999931,-0.003999949,5,0,0
11.036취,11036,0,-1,-0.009999931,-0.005999982,5,0,0
11.088취,11088,-0.005999982,-1,-0.009999931,-0.005999982,5,0,0
11.14취,11140,0.03400004,-1,-0.009999931,-0.005999982,5,0,0
11.192취,11192,0.2880001,-1,-0.009999931,-0.005999982,5,0,0
11.244취,11244,0.46,-1,-0.009999931,-0.003999949,5,0,0
11.292취,11292,0.508,-1,-0.009999931,-0.003999949,5,0,0
11.344취,11344,0.6600001,-1,-0.009999931,-0.005999982,5,0,0
11.396취,11396,0.8420001,-1,-0.009999931,-0.005999982,5,0,0
11.448취,11448,0.9380001,-1,-0.009999931,-0.005999982,5,0,0
11.496취,11496,1,-1,-0.009999931,-0.005999982,5,0,0
11.548취,11548,1,-1,-0.009999931,-0.005999982,5,0,0
11.596취,11596,1,-1,-0.009999931,-0.005999982,5,0,0
11.648취,11648,1,-1,-0.009999931,-0.005999982,5,0,0
11.696취,11696,1,-1,-0.009999931,-0.003999949,5,0,0
11.748취,11748,1,-1,-0.009999931,-0.005999982,5,0,0
11.796취,11796,1,-1,-0.009999931,-0.005999982,5,0,0
11.848취,11848,1,-1,-0.009999931,-0.005999982,5,0,0
11.904취,11904,1,-1,-0.009999931,-0.005999982,5,0,0
11.956취,11956,1,-1,-0.009999931,0,5,0,0
12.004취,12004,1,-1,-0.009999931,0,5,0,0
12.056취,12056,1,-1,-0.009999931,0.002000093,5,0,0
12.104취,12104,1,-1,-0.009999931,0,5,0,0
12.156취,12156,1,-1,-0.009999931,0,5,0,0
12.212취,12212,1,-1,-0.009999931,0,5,0,0
12.26취,12260,1,-1,-0.009999931,0,5,0,0
12.312취,12312,1,-1,-0.009999931,0,5,0,0
12.36취,12360,1,-1,-0.009999931,0,5,0,0
12.412취,12412,1,-1,-0.009999931,0,5,0,0
12.46취,12460,1,-1,-0.009999931,0,5,0,0
12.512취,12512,1,-1,-0.009999931,0,5,0,0
12.56취,12560,1,-1,-0.009999931,0,5,0,0
12.612취,12612,1,-1,-0.009999931,0,5,0,0
12.664취,12664,1,-1,-0.009999931,0,5,0,0
12.716취,12716,1,-1,-0.009999931,0,5,0,0
12.768취,12768,1,-1,-0.009999931,0,5,0,0
12.816취,12816,1,-1,-0.009999931,0,5,0,0
12.868취,12868,1,-1,-0.009999931,0,5,0,0
12.92취,12920,1,-1,-0.009999931,0,5,0,0
12.972취,12972,1,-1,-0.009999931,0,5,0,0
13.024취,13024,1,-1,-0.009999931,0,5,0,0
13.076취,13076,1,-1,-0.009999931,0,5,0,0
13.124취,13124,1,-1,-0.009999931,0,5,0,0
13.176취,13176,1,-1,-0.009999931,0,5,0,0
13.224취,13224,1,-1,-0.009999931,0,5,0,0
13.276취,13276,1,-1,-0.009999931,0,5,0,0
13.324취,13324,1,-1,-0.009999931,0,5,0,0
13.376취,13376,1,-1,-0.009999931,0,5,0,0
13.428취,13428,1,-1,-0.009999931,0,5,0,0
13.48취,13480,1,-1,-0.009999931,0,5,0,0
13.532취,13532,1,-1,-0.009999931,0,5,0,0
13.584취,13584,1,-1,-0.009999931,0,5,0,0
13.632취,13632,1,-1,-0.009999931,0,5,0,0
13.684취,13684,1,-1,-0.009999931,0,5,0,0
13.736취,13736,1,-1,-0.009999931,0,5,0,0
13.788취,13788,1,-1,-0.009999931,0,5,0,0
13.836취,13836,1,-1,-0.009999931,0,5,0,0
13.888취,13888,1,-1,-0.009999931,0,5,0,0
13.936취,13936,1,-1,-0.009999931,0,5,0,0
13.988취,13988,1,-1,-0.009999931,0,5,0,0
14.036취,14036,1,-1,-0.009999931,0,5,0,0
14.088취,14088,1,-1,-0.009999931,0,5,0,0
14.136취,14136,1,-1,-0.009999931,0,5,0,0
14.188취,14188,1,-1,-0.009999931,-0.003999949,5,0,0
14.24취,14240,1,-1,-0.009999931,0,5,0,0
14.296취,14296,1,-1,-0.009999931,0,5,0,0
14.344취,14344,1,-1,-0.009999931,0,5,0,0
14.396취,14396,1,-1,-0.009999931,0,5,0,0
14.444취,14444,1,-1,-0.009999931,0,5,0,0
14.496취,14496,1,-1,-0.009999931,0,5,0,0
14.548취,14548,1,-1,-0.009999931,0,5,0,0
14.6취,14600,0.9980001,-1,-0.009999931,0,5,0,0
14.648취,14648,0.868,-1,-0.007999957,0,5,0,0
14.7취,14700,0.534,-1,-0.007999957,0,5,0,0
14.748취,14748,0.03600001,-0.974,-0.007999957,0,5,0,0
14.8취,14800,-0.003999949,-0.974,-0.005999982,0,5,0,0
14.856취,14856,-0.003999949,-0.974,-0.005999982,0,5,0,0
14.904취,14904,-0.003999949,-0.974,-0.005999982,0,5,0,0
14.956취,14956,-0.003999949,-0.974,-0.005999982,0,5,0,0
15.004취,15004,-0.003999949,-0.974,-0.005999982,0,5,0,0
15.056취,15056,-0.003999949,-0.974,-0.005999982,0,5,0,0
15.108취,15108,-0.003999949,-0.974,-0.005999982,0,5,0,0
15.16취,15160,-0.005999982,-0.974,-0.005999982,0,5,0,0
15.208취,15208,-0.005999982,-0.974,-0.005999982,0,5,0,0
15.26취,15260,0,-0.966,-0.005999982,0,5,0,0
15.312취,15312,0,-0.932,-0.005999982,0,5,0,0
15.364취,15364,0,-0.93,-0.005999982,0,5,0,0
15.416취,15416,0,-0.896,-0.007999957,0,5,0,0
15.464취,15464,0,-0.838,-0.005999982,0,5,0,0
15.516취,15516,0,-0.83,-0.005999982,0,5,0,0
15.564취,15564,0,-0.776,-0.005999982,0,5,0,0
15.616취,15616,-0.003999949,-0.732,-0.005999982,0,5,0,0
15.668취,15668,0,-0.71,-0.005999982,0,5,0,0
15.716취,15716,-0.003999949,-0.6619999,-0.005999982,0,5,0,0
15.768취,15768,-0.003999949,-0.608,-0.005999982,0,5,0,0
15.82취,15820,-0.003999949,-0.522,-0.005999982,0,5,0,0
15.872취,15872,-0.003999949,-0.466,-0.005999982,0,5,0,0
15.924취,15924,-0.003999949,-0.3979999,-0.005999982,0,5,0,0
15.972취,15972,-0.003999949,-0.334,-0.007999957,0,5,0,0
16.024취,16024,-0.003999949,-0.312,-0.005999982,0,5,0,0
16.072취,16072,-0.003999949,-0.29,-0.007999957,0,5,0,0
16.128취,16128,-0.003999949,-0.22,-0.005999982,0,5,0,0
16.176취,16176,-0.003999949,-0.1619999,-0.007999957,0,5,0,0
16.228취,16228,-0.003999949,-0.122,-0.007999957,0,5,0,0
16.276취,16276,-0.003999949,-0.09799993,-0.007999957,0,5,0,0
16.328취,16328,-0.003999949,-0.06599998,-0.007999957,0,5,0,0
16.38취,16380,-0.003999949,-0.03599995,-0.005999982,-0.003999949,5,0,0
16.428취,16428,0,-0.03199995,-0.007999957,-0.003999949,5,0,0
16.48취,16480,0,0.004000068,-0.005999982,0,5,0,0
16.528취,16528,0,0.02600002,-0.007999957,-0.003999949,5,0,0
16.58취,16580,0,0.046,-0.007999957,-0.003999949,5,0,0
16.632취,16632,-0.003999949,0.07600009,-0.007999957,-0.003999949,5,0,0
16.688취,16688,-0.003999949,0.12,-0.005999982,-0.003999949,5,0,0
16.736취,16736,-0.003999949,0.148,-0.005999982,-0.003999949,5,0,0
16.788취,16788,-0.003999949,0.1900001,-0.005999982,-0.003999949,5,0,0
16.836취,16836,-0.003999949,0.228,-0.005999982,-0.003999949,5,0,0
16.888취,16888,-0.003999949,0.2520001,-0.005999982,0,5,0,0
16.94취,16940,-0.003999949,0.2920001,-0.005999982,0,5,0,0
16.996취,16996,-0.003999949,0.296,-0.005999982,0,5,0,0
17.048취,17048,-0.003999949,0.3240001,-0.005999982,0,5,0,0
17.1취,17100,-0.003999949,0.3380001,-0.005999982,0,5,0,0
17.156취,17156,-0.003999949,0.36,-0.005999982,0,5,0,0
17.204취,17204,-0.003999949,0.3640001,-0.005999982,0,5,0,0
17.256취,17256,-0.003999949,0.3640001,-0.005999982,-0.003999949,5,0,0
17.304취,17304,-0.003999949,0.368,-0.005999982,0,5,0,0
17.356취,17356,-0.003999949,0.3820001,-0.005999982,0,5,0,0
17.408취,17408,-0.003999949,0.388,-0.005999982,0,5,0,0
17.46취,17460,-0.003999949,0.3900001,-0.005999982,0,5,0,0
17.508취,17508,-0.003999949,0.4020001,-0.005999982,0,5,0,0
17.56취,17560,-0.003999949,0.4020001,-0.005999982,0,5,0,0
17.608취,17608,-0.003999949,0.4020001,-0.007999957,0,5,0,0
17.664취,17664,-0.003999949,0.404,-0.007999957,-0.003999949,5,0,0
17.712취,17712,-0.003999949,0.404,-0.005999982,0,5,0,0
17.764취,17764,-0.003999949,0.4100001,-0.005999982,-0.003999949,5,0,0
17.812취,17812,-0.003999949,0.416,-0.005999982,-0.003999949,5,0,0
17.864취,17864,-0.003999949,0.4180001,-0.005999982,0,5,0,0
17.916취,17916,-0.003999949,0.4200001,-0.007999957,-0.003999949,5,0,0
17.968취,17968,-0.003999949,0.424,-0.005999982,-0.003999949,5,0,0
18.016취,18016,-0.003999949,0.424,-0.005999982,-0.003999949,5,0,0
18.068취,18068,-0.003999949,0.4260001,-0.007999957,0,5,0,0
18.116취,18116,-0.003999949,0.4260001,-0.007999957,-0.003999949,5,0,0
18.168취,18168,-0.003999949,0.4260001,-0.007999957,-0.003999949,5,0,0
18.216취,18216,-0.003999949,0.4280001,-0.007999957,-0.003999949,5,0,0
18.268취,18268,-0.003999949,0.4280001,-0.007999957,-0.003999949,5,0,0
18.316취,18316,-0.003999949,0.4300001,-0.007999957,-0.003999949,5,0,0
18.372취,18372,-0.003999949,0.432,-0.005999982,-0.003999949,5,0,0
18.424취,18424,-0.003999949,0.434,-0.007999957,-0.003999949,5,0,0
18.472취,18472,-0.003999949,0.434,-0.007999957,-0.003999949,5,0,0
18.524취,18524,-0.003999949,0.4380001,-0.007999957,-0.003999949,5,0,0
18.572취,18572,-0.003999949,0.4380001,-0.007999957,-0.003999949,5,0,0
18.624취,18624,-0.003999949,0.4380001,-0.007999957,-0.003999949,5,0,0
18.68취,18680,-0.003999949,0.4380001,-0.007999957,-0.003999949,5,0,0
18.732취,18732,-0.003999949,0.452,-0.007999957,-0.003999949,5,0,0
18.78취,18780,-0.003999949,0.4560001,-0.007999957,-0.003999949,5,0,0
18.832취,18832,-0.003999949,0.46,-0.007999957,-0.003999949,5,0,0
18.88취,18880,-0.003999949,0.462,-0.007999957,-0.003999949,5,0,0
18.932취,18932,-0.003999949,0.4660001,-0.007999957,-0.003999949,5,0,0
18.984취,18984,-0.003999949,0.4760001,-0.007999957,-0.003999949,5,0,0
19.036취,19036,-0.003999949,0.478,-0.007999957,-0.003999949,5,0,0
19.084취,19084,-0.003999949,0.4820001,-0.007999957,-0.003999949,5,0,0
19.136취,19136,-0.003999949,0.4820001,-0.007999957,-0.003999949,5,0,0
19.184취,19184,-0.003999949,0.4820001,-0.007999957,-0.003999949,5,0,0
19.24취,19240,-0.003999949,0.4820001,-0.007999957,-0.003999949,5,0,0
19.288취,19288,-0.003999949,0.4900001,-0.007999957,-0.003999949,5,0,0
19.34취,19340,-0.003999949,0.4920001,-0.007999957,-0.003999949,5,0,0
19.388취,19388,-0.003999949,0.4920001,-0.007999957,-0.003999949,5,0,0
19.44취,19440,-0.003999949,0.4940001,-0.007999957,-0.003999949,5,0,0
19.492취,19492,-0.003999949,0.4940001,-0.007999957,-0.003999949,5,0,0
19.544취,19544,-0.003999949,0.4940001,-0.007999957,-0.003999949,5,0,0
19.592취,19592,-0.003999949,0.4940001,-0.007999957,-0.003999949,5,0,0
19.644취,19644,-0.003999949,0.4940001,-0.007999957,-0.003999949,5,0,0
19.692취,19692,-0.005999982,0.4940001,-0.007999957,-0.003999949,5,0,0
19.748취,19748,-0.003999949,0.4940001,-0.007999957,-0.003999949,5,0,0
19.796취,19796,-0.003999949,0.5000001,-0.007999957,-0.003999949,5,0,0
19.848취,19848,-0.003999949,0.5020001,-0.007999957,-0.003999949,5,0,0
19.896취,19896,-0.003999949,0.5020001,-0.007999957,-0.003999949,5,0,0
19.948취,19948,-0.003999949,0.5040001,-0.007999957,-0.003999949,5,0,0
20취,20000,-0.003999949,0.5040001,-0.007999957,-0.003999949,5,0,0
20.048취,20048,-0.003999949,0.5040001,-0.007999957,-0.003999949,5,0,0
20.1취,20100,-0.003999949,0.5040001,-0.007999957,-0.003999949,5,0,0
20.148취,20148,-0.003999949,0.5040001,-0.007999957,-0.003999949,5,0,0
20.2취,20200,-0.003999949,0.5040001,-0.007999957,-0.003999949,5,0,0
20.256취,20256,-0.003999949,0.5040001,-0.007999957,-0.003999949,5,0,0
20.304취,20304,-0.003999949,0.5040001,-0.007999957,-0.003999949,5,0,0
20.356취,20356,-0.003999949,0.5040001,-0.007999957,-0.003999949,5,0,0
20.404취,20404,-0.003999949,0.5040001,-0.007999957,-0.003999949,5,0,0
20.456취,20456,-0.003999949,0.5040001,-0.007999957,-0.003999949,5,0,0
20.504취,20504,-0.003999949,0.5040001,-0.007999957,-0.003999949,5,0,0
20.556취,20556,-0.003999949,0.5040001,-0.007999957,-0.003999949,5,0,0
20.604취,20604,-0.003999949,0.5040001,-0.007999957,-0.003999949,5,0,0
20.656취,20656,-0.003999949,0.5040001,-0.007999957,-0.003999949,5,0,0
20.708취,20708,-0.003999949,0.5040001,-0.007999957,-0.003999949,5,0,0
20.76취,20760,-0.003999949,0.5040001,-0.007999957,-0.003999949,5,0,0
20.816취,20816,-0.003999949,0.5040001,-0.007999957,-0.003999949,5,0,0
20.864취,20864,-0.003999949,0.5040001,-0.007999957,-0.003999949,5,0,0
20.916취,20916,-0.003999949,0.5040001,-0.007999957,-0.003999949,5,0,0
20.964취,20964,-0.003999949,0.5040001,-0.007999957,-0.003999949,5,0,0
21.016취,21016,-0.005999982,0.5040001,-0.007999957,-0.003999949,5,0,0
21.068취,21068,-0.005999982,0.5020001,-0.007999957,-0.003999949,5,0,0
21.12취,21120,-0.005999982,0.5000001,-0.007999957,-0.003999949,5,0,0
21.168취,21168,-0.005999982,0.478,-0.007999957,-0.003999949,5,0,0
21.22취,21220,-0.005999982,0.46,-0.007999957,-0.003999949,5,0,0
21.268취,21268,-0.005999982,0.4300001,-0.007999957,-0.003999949,5,0,0
21.32취,21320,-0.005999982,0.416,-0.007999957,-0.003999949,5,0,0
21.368취,21368,-0.005999982,0.36,-0.007999957,0,5,0,0
21.42취,21420,-0.005999982,0.3340001,-0.007999957,-0.003999949,5,0,0
21.472취,21472,-0.005999982,0.296,-0.005999982,0,5,0,0
21.524취,21524,-0.005999982,0.21,-0.005999982,0,5,0,0
21.576취,21576,-0.005999982,0.164,-0.007999957,0,5,0,0
21.628취,21628,-0.005999982,0.146,-0.005999982,0,5,0,0
21.676취,21676,-0.005999982,0.136,-0.005999982,0,5,0,0
21.728취,21728,-0.005999982,0.1340001,-0.007999957,0,5,0,0
21.78취,21780,-0.005999982,0.13,-0.005999982,0,5,0,0
21.832취,21832,-0.005999982,0.13,-0.007999957,0,5,0,0
21.884취,21884,-0.005999982,0.1320001,-0.007999957,0,5,0,0
21.936취,21936,-0.005999982,0.1320001,-0.007999957,-0.003999949,5,0,0
21.984취,21984,-0.005999982,0.1320001,-0.005999982,0,5,0,0
22.036취,22036,-0.005999982,0.1320001,-0.007999957,0,5,0,0
22.084취,22084,-0.005999982,0.1320001,-0.007999957,0,5,0,0
22.136취,22136,-0.005999982,0.1320001,-0.007999957,0,5,0,0
22.184취,22184,-0.005999982,0.1320001,-0.007999957,0,5,0,0
22.236취,22236,-0.005999982,0.1320001,-0.007999957,0,5,0,0
22.284취,22284,-0.005999982,0.1320001,-0.007999957,0,5,0,0
22.34취,22340,-0.005999982,0.1320001,-0.007999957,0,5,0,0
22.392취,22392,-0.005999982,0.1320001,-0.007999957,0,5,0,0
22.444취,22444,-0.005999982,0.1320001,-0.007999957,0,5,0,0
22.496취,22496,-0.005999982,0.1320001,-0.007999957,0,5,0,0
22.544취,22544,-0.005999982,0.1320001,-0.007999957,0,5,0,0
22.596취,22596,-0.005999982,0.1320001,-0.007999957,0,5,0,0
22.644취,22644,-0.005999982,0.1320001,-0.007999957,0,5,0,0
22.696취,22696,-0.005999982,0.1320001,-0.007999957,0,5,0,0
22.744취,22744,-0.005999982,0.1320001,-0.007999957,0,5,0,0
22.796취,22796,-0.005999982,0.1340001,-0.007999957,0,5,0,0
22.844취,22844,-0.005999982,0.1320001,-0.007999957,0,5,0,0
22.896취,22896,-0.005999982,0.1320001,-0.007999957,0,5,0,0
22.944취,22944,-0.005999982,0.1320001,-0.007999957,-0.003999949,5,0,0
22.996취,22996,-0.005999982,0.1320001,-0.007999957,0,5,0,0
23.048취,23048,-0.005999982,0.1320001,-0.005999982,0,5,0,0
23.1취,23100,-0.005999982,0.1320001,-0.007999957,0,5,0,0
23.152취,23152,-0.005999982,0.1320001,-0.007999957,0,5,0,0
23.204취,23204,-0.005999982,0.1320001,-0.007999957,0,5,0,0
23.252취,23252,-0.005999982,0.1320001,-0.009999931,0.006000042,5,0,0
23.304취,23304,-0.005999982,0.1340001,-0.009999931,0.0200001,5,0,0
23.356취,23356,-0.005999982,0.1320001,-0.009999931,0.07800007,5,0,0
23.408취,23408,-0.005999982,0.1340001,-0.009999931,0.166,5,0,0
23.456취,23456,-0.005999982,0.1340001,-0.009999931,0.2340001,5,0,0
23.508취,23508,-0.005999982,0.1340001,-0.009999931,0.3460001,5,0,0
23.556취,23556,-0.005999982,0.1340001,-0.009999931,0.4280001,5,0,0
23.608취,23608,-0.005999982,0.1340001,-0.009999931,0.488,5,0,0
23.66취,23660,-0.005999982,0.1340001,-0.005999982,0.5320001,5,0,0
23.712취,23712,-0.005999982,0.1340001,-0.003999949,0.5640001,5,0,0
23.76취,23760,-0.005999982,0.1340001,-0.003999949,0.6,5,0,0
23.812취,23812,-0.005999982,0.1340001,-0.005999982,0.618,5,0,0
23.864취,23864,-0.005999982,0.1320001,-0.005999982,0.6700001,5,0,0
23.916취,23916,-0.005999982,0.1340001,-0.007999957,0.8140001,5,0,0
23.968취,23968,-0.005999982,0.1340001,-0.007999957,0.8560001,5,0,0
24.02취,24020,-0.005999982,0.1340001,-0.007999957,0.8780001,5,0,0
24.068취,24068,-0.005999982,0.1340001,-0.02599996,0.904,5,0,0
24.12취,24120,-0.005999982,0.1340001,-0.03399998,0.9260001,5,0,0
24.168취,24168,-0.005999982,0.1340001,-0.06199998,0.9480001,5,0,0
24.224취,24224,-0.005999982,0.1340001,-0.03799993,0.9740001,5,0,0
24.272취,24272,-0.005999982,0.1340001,-0.06399995,0.9840001,5,0,0
24.324취,24324,-0.005999982,0.1340001,-0.003999949,1,5,0,0
24.372취,24372,-0.005999982,0.1340001,-0.005999982,1,5,0,0
24.424취,24424,-0.005999982,0.1340001,-0.003999949,1,5,0,0
24.476취,24476,-0.005999982,0.1340001,-0.009999931,1,5,0,0
24.524취,24524,-0.005999982,0.1320001,-0.01399994,1,5,0,0
24.576취,24576,-0.005999982,0.1320001,-0.01399994,1,5,0,0
24.624취,24624,-0.005999982,0.1340001,-0.03599995,1,5,0,0
24.676취,24676,-0.005999982,0.1340001,-0.02999997,1,5,0,0
24.728취,24728,-0.005999982,0.1340001,-0.03999996,1,5,0,0
24.78취,24780,-0.005999982,0.1320001,-0.03399998,1,5,0,0
24.828취,24828,-0.005999982,0.1340001,-0.02999997,1,5,0,0
24.88취,24880,-0.005999982,0.1340001,-0.03999996,1,5,0,0
24.932취,24932,-0.005999982,0.1340001,-0.04799998,1,5,0,0
24.984취,24984,-0.005999982,0.1320001,-0.04999995,1,5,0,0
25.032취,25032,-0.005999982,0.1340001,-0.04599994,1,5,0,0
25.084취,25084,-0.005999982,0.1340001,-0.04399997,1,5,0,0
25.132취,25132,-0.005999982,0.1340001,-0.04199994,1,5,0,0
25.184취,25184,-0.005999982,0.1340001,-0.04199994,1,5,0,0
25.236취,25236,-0.005999982,0.1340001,-0.03999996,1,5,0,0
25.288취,25288,-0.005999982,0.1340001,-0.03999996,1,5,0,0
25.336취,25336,-0.005999982,0.1340001,-0.03999996,1,5,0,0
25.388취,25388,-0.005999982,0.1340001,-0.03999996,1,5,0,0
25.44취,25440,-0.005999982,0.1340001,-0.03799993,1,5,0,0
25.492취,25492,-0.005999982,0.1340001,-0.03399998,1,5,0,0
25.544취,25544,-0.005999982,0.1340001,-0.03199995,1,5,0,0
25.596취,25596,-0.005999982,0.1340001,-0.03199995,1,5,0,0
25.644취,25644,-0.005999982,0.1320001,-0.03399998,1,5,0,0
25.696취,25696,-0.005999982,0.1340001,-0.03199995,1,5,0,0
25.748취,25748,-0.005999982,0.1340001,-0.03399998,1,5,0,0
25.8취,25800,-0.005999982,0.1340001,-0.05399996,1,5,0,0
25.848취,25848,-0.005999982,0.1340001,-0.08399993,1,5,0,0
25.9취,25900,-0.005999982,0.1340001,-0.09599996,1,5,0,0
25.948취,25948,-0.005999982,0.1340001,-0.09599996,1,5,0,0
26취,26000,-0.005999982,0.1340001,-0.104,1,5,0,0
26.052취,26052,-0.005999982,0.1320001,-0.1059999,1,5,0,0
26.104취,26104,-0.005999982,0.1340001,-0.11,1,5,0,0
26.152취,26152,-0.005999982,0.1320001,-0.1299999,1,5,0,0
26.204취,26204,-0.005999982,0.1340001,-0.1299999,1,5,0,0
26.252취,26252,-0.005999982,0.1340001,-0.07799995,1,5,0,0
26.308취,26308,-0.005999982,0.1340001,-0.05999994,1,5,0,0
26.356취,26356,-0.005999982,0.1340001,-0.06399995,1,5,0,0
26.408취,26408,-0.005999982,0.1340001,-0.06399995,1,5,0,0
26.456취,26456,-0.005999982,0.1320001,-0.06199998,1,5,0,0
26.508취,26508,-0.005999982,0.1320001,-0.04999995,1,5,0,0
26.56취,26560,-0.005999982,0.1320001,-0.04999995,1,5,0,0
26.612취,26612,-0.005999982,0.1340001,-0.04999995,1,5,0,0
26.66취,26660,-0.005999982,0.1320001,-0.04599994,1,5,0,0
26.712취,26712,-0.005999982,0.1340001,-0.04599994,1,5,0,0
26.76취,26760,-0.005999982,0.1320001,-0.04599994,1,5,0,0
26.812취,26812,-0.005999982,0.1340001,-0.04399997,1,5,0,0
26.868취,26868,-0.005999982,0.1340001,-0.03999996,1,5,0,0
26.916취,26916,-0.005999982,0.1320001,-0.03999996,1,5,0,0
26.968취,26968,-0.005999982,0.1320001,-0.04199994,1,5,0,0
27.016취,27016,-0.005999982,0.1340001,-0.04199994,1,5,0,0
27.068취,27068,-0.005999982,0.1320001,-0.03999996,1,5,0,0
27.12취,27120,-0.005999982,0.1340001,-0.04199994,1,5,0,0
27.172취,27172,-0.005999982,0.1340001,-0.03999996,1,5,0,0
27.22취,27220,-0.005999982,0.1340001,-0.04199994,1,5,0,0
27.272취,27272,-0.005999982,0.1340001,-0.03999996,1,5,0,0
27.324취,27324,-0.005999982,0.1340001,-0.03999996,1,5,0,0
27.376취,27376,-0.005999982,0.1340001,-0.03999996,1,5,0,0
27.428취,27428,-0.005999982,0.1340001,-0.03999996,1,5,0,0
27.476취,27476,-0.005999982,0.1340001,-0.03999996,1,5,0,0
27.528취,27528,-0.005999982,0.1340001,-0.03999996,1,5,0,0
27.576취,27576,-0.005999982,0.1340001,-0.03999996,1,5,0,0
27.628취,27628,-0.005999982,0.1340001,-0.04199994,1,5,0,0
27.68취,27680,-0.005999982,0.1340001,-0.04199994,1,5,0,0
27.728취,27728,-0.005999982,0.1340001,-0.04199994,1,5,0,0
27.78취,27780,-0.005999982,0.1340001,-0.04199994,1,5,0,0
27.832취,27832,-0.005999982,0.1340001,-0.04199994,1,5,0,0
27.884취,27884,-0.005999982,0.1340001,-0.04199994,1,5,0,0
27.932취,27932,-0.005999982,0.1340001,-0.04199994,1,5,0,0
27.984취,27984,-0.005999982,0.1340001,-0.04199994,1,5,0,0
28.032취,28032,-0.005999982,0.1340001,-0.04399997,1,5,0,0
28.084취,28084,-0.005999982,0.1340001,-0.04399997,1,5,0,0
28.132취,28132,-0.005999982,0.1340001,-0.04399997,1,5,0,0
28.184취,28184,-0.005999982,0.1340001,-0.04399997,1,5,0,0
28.232취,28232,-0.005999982,0.1340001,-0.04399997,1,5,0,0
28.284취,28284,-0.005999982,0.1340001,-0.04599994,1,5,0,0
28.336취,28336,-0.005999982,0.1340001,-0.04399997,1,5,0,0
28.392취,28392,-0.005999982,0.1340001,-0.04599994,1,5,0,0
28.44취,28440,-0.005999982,0.1340001,-0.04599994,1,5,0,0
28.492취,28492,-0.005999982,0.1340001,-0.04399997,1,5,0,0
28.54취,28540,-0.005999982,0.1320001,-0.04399997,1,5,0,0
28.592취,28592,-0.005999982,0.1340001,-0.04399997,1,5,0,0
28.644취,28644,-0.005999982,0.1340001,-0.04599994,1,5,0,0
28.696취,28696,-0.005999982,0.1340001,-0.04599994,1,5,0,0
28.748취,28748,-0.005999982,0.1340001,-0.04599994,1,5,0,0
28.796취,28796,-0.005999982,0.1340001,-0.04599994,1,5,0,0
28.848취,28848,-0.005999982,0.1340001,-0.04599994,1,5,0,0
28.9취,28900,-0.005999982,0.1340001,-0.04599994,1,5,0,0
28.952취,28952,-0.005999982,0.1340001,-0.04599994,1,5,0,0
29.004취,29004,-0.005999982,0.1320001,-0.04599994,1,5,0,0
29.052취,29052,-0.005999982,0.1320001,-0.04599994,1,5,0,0
29.104취,29104,-0.005999982,0.1320001,-0.04599994,1,5,0,0
29.152취,29152,-0.005999982,0.1340001,-0.04599994,1,5,0,0
29.204취,29204,-0.005999982,0.1340001,-0.04599994,1,5,0,0
29.256취,29256,-0.005999982,0.1340001,-0.04599994,1,5,0,0
29.304취,29304,-0.005999982,0.1340001,-0.03599995,1,5,0,0
29.356취,29356,-0.005999982,0.1340001,-0.003999949,0.9900001,5,0,0
29.408취,29408,-0.005999982,0.1340001,-0.003999949,0.9100001,5,0,0
29.46취,29460,-0.005999982,0.1340001,-0.003999949,0.8060001,5,0,0
29.512취,29512,-0.005999982,0.1320001,-0.005999982,0.72,5,0,0
29.56취,29560,-0.005999982,0.1320001,-0.005999982,0.6380001,5,0,0
29.612취,29612,-0.005999982,0.1340001,-0.005999982,0.5480001,5,0,0
29.66취,29660,-0.005999982,0.1340001,-0.005999982,0.404,5,0,0
29.712취,29712,-0.005999982,0.1340001,-0.005999982,0.2360001,5,0,0
29.76취,29760,-0.005999982,0.1320001,-0.003999949,0.05200005,5,0,0
29.812취,29812,-0.005999982,0.1320001,-0.003999949,-0.003999949,5,0,0
29.86취,29860,-0.005999982,0.1320001,-0.003999949,-0.005999982,5,0,0
29.916취,29916,-0.005999982,0.1320001,-0.003999949,-0.005999982,5,0,0
29.968취,29968,-0.005999982,0.1320001,-0.003999949,-0.003999949,5,0,0
30.016취,30016,-0.005999982,0.1320001,-0.003999949,-0.005999982,5,0,0
30.068취,30068,-0.005999982,0.1340001,-0.003999949,-0.005999982,5,0,0
30.116취,30116,-0.005999982,0.1320001,-0.003999949,-0.005999982,5,0,0
30.168취,30168,-0.005999982,0.1320001,-0.003999949,-0.003999949,5,0,0
30.22취,30220,-0.005999982,0.1320001,-0.003999949,-0.005999982,5,0,0
30.276취,30276,-0.005999982,0.1340001,-0.003999949,-0.005999982,5,0,0
30.324취,30324,-0.005999982,0.1340001,-0.003999949,-0.009999931,5,0,0
30.376취,30376,-0.005999982,0.1320001,-0.001999974,-0.01199996,5,0,0
30.424취,30424,-0.005999982,0.1320001,-0.003999949,-0.009999931,5,0,0
30.476취,30476,-0.005999982,0.1320001,-0.003999949,-0.007999957,5,0,0
30.524취,30524,-0.005999982,0.1340001,-0.003999949,-0.005999982,5,0,0
30.576취,30576,-0.005999982,0.1320001,-0.003999949,-0.005999982,5,0,0
30.624취,30624,-0.005999982,0.1320001,-0.003999949,-0.005999982,5,0,0
30.676취,30676,-0.005999982,0.1320001,-0.003999949,-0.005999982,5,0,0
30.728취,30728,-0.005999982,0.1340001,-0.003999949,-0.005999982,5,0,0
30.784취,30784,-0.005999982,0.1320001,-0.003999949,-0.005999982,5,0,0
30.832취,30832,-0.005999982,0.1320001,-0.003999949,-0.005999982,5,0,0
30.884취,30884,-0.005999982,0.1340001,-0.003999949,-0.005999982,5,0,0
30.932취,30932,-0.005999982,0.1320001,-0.003999949,-0.005999982,5,0,0
30.984취,30984,-0.005999982,0.1320001,-0.003999949,-0.005999982,5,0,0
31.036취,31036,-0.005999982,0.1320001,-0.003999949,-0.06799996,5,0,0
31.088취,31088,-0.005999982,0.1320001,-0.003999949,-0.17,5,0,0
31.136취,31136,-0.005999982,0.1320001,-0.003999949,-0.428,5,0,0
31.188취,31188,-0.005999982,0.1320001,-0.003999949,-0.816,5,0,0
31.236취,31236,-0.005999982,0.1320001,-0.005999982,-1,5,0,0
31.292취,31292,-0.005999982,0.1320001,-0.009999931,-1,5,0,0
31.34취,31340,-0.005999982,0.1320001,-0.007999957,-1,5,0,0
31.392취,31392,-0.005999982,0.1340001,-0.007999957,-1,5,0,0
31.44취,31440,-0.005999982,0.1340001,-0.005999982,-1,5,0,0
31.492취,31492,-0.005999982,0.1320001,-0.005999982,-1,5,0,0
31.544취,31544,-0.005999982,0.1320001,-0.005999982,-1,5,0,0
31.596취,31596,-0.005999982,0.1320001,-0.005999982,-1,5,0,0
31.644취,31644,-0.005999982,0.1320001,-0.003999949,-1,5,0,0
31.696취,31696,-0.005999982,0.1320001,-0.005999982,-1,5,0,0
31.744취,31744,-0.005999982,0.1340001,-0.005999982,-1,5,0,0
31.8취,31800,-0.005999982,0.1320001,-0.005999982,-1,5,0,0
31.848취,31848,-0.005999982,0.1320001,-0.005999982,-1,5,0,0
31.9취,31900,-0.005999982,0.1340001,-0.005999982,-1,5,0,0
31.948취,31948,-0.005999982,0.1320001,-0.005999982,-1,5,0,0
32취,32000,-0.005999982,0.1320001,-0.005999982,-1,5,0,0
32.052취,32052,-0.005999982,0.1320001,-0.005999982,-1,5,0,0
32.1취,32100,-0.005999982,0.1320001,-0.005999982,-1,5,0,0
32.152취,32152,-0.005999982,0.1340001,-0.005999982,-1,5,0,0
32.2취,32200,-0.005999982,0.1320001,-0.005999982,-1,5,0,0
32.252취,32252,-0.005999982,0.1340001,-0.005999982,-1,5,0,0
32.304취,32304,-0.005999982,0.1340001,-0.005999982,-1,5,0,0
32.36취,32360,-0.005999982,0.1320001,-0.005999982,-1,5,0,0
32.408취,32408,-0.005999982,0.1320001,-0.005999982,-1,5,0,0
32.46취,32460,-0.005999982,0.1320001,-0.005999982,-1,5,0,0
32.508취,32508,-0.005999982,0.1320001,-0.005999982,-1,5,0,0
32.56취,32560,-0.005999982,0.1340001,-0.005999982,-1,5,0,0
32.612취,32612,-0.005999982,0.1320001,-0.005999982,-1,5,0,0
32.664취,32664,-0.005999982,0.1320001,-0.005999982,-1,5,0,0
32.712취,32712,-0.005999982,0.1320001,-0.005999982,-1,5,0,0
32.764취,32764,-0.005999982,0.1320001,-0.005999982,-1,5,0,0
32.812취,32812,-0.005999982,0.1320001,-0.005999982,-1,5,0,0
32.868취,32868,-0.005999982,0.1320001,-0.005999982,-1,5,0,0
32.916취,32916,-0.005999982,0.1340001,-0.005999982,-1,5,0,0
32.968취,32968,-0.005999982,0.1340001,-0.005999982,-1,5,0,0
33.016취,33016,-0.005999982,0.1320001,-0.005999982,-1,5,0,0
33.068취,33068,-0.005999982,0.1320001,-0.005999982,-1,5,0,0
33.12취,33120,-0.005999982,0.1320001,-0.005999982,-1,5,0,0
33.172취,33172,-0.005999982,0.1320001,-0.005999982,-1,5,0,0
33.22취,33220,-0.005999982,0.1320001,-0.005999982,-1,5,0,0
33.272취,33272,-0.005999982,0.1320001,-0.005999982,-1,5,0,0
33.32취,33320,-0.005999982,0.1320001,-0.005999982,-1,5,0,0
33.376취,33376,-0.005999982,0.1340001,-0.005999982,-1,5,0,0
33.424취,33424,-0.005999982,0.1320001,-0.005999982,-1,5,0,0
33.476취,33476,-0.005999982,0.1320001,-0.005999982,-1,5,0,0
33.524취,33524,-0.005999982,0.1320001,-0.005999982,-1,5,0,0
33.576취,33576,-0.005999982,0.1320001,-0.005999982,-1,5,0,0
33.628취,33628,-0.005999982,0.1320001,-0.005999982,-1,5,0,0
33.68취,33680,-0.005999982,0.1320001,-0.005999982,-1,5,0,0
33.732취,33732,-0.005999982,0.1320001,-0.005999982,-1,5,0,0
33.78취,33780,-0.005999982,0.1340001,-0.005999982,-1,5,0,0
33.832취,33832,-0.005999982,0.1320001,-0.005999982,-1,5,0,0
33.88취,33880,-0.005999982,0.1320001,-0.005999982,-1,5,0,0
33.936취,33936,-0.005999982,0.1320001,-0.005999982,-1,5,0,0
33.984취,33984,-0.005999982,0.1320001,-0.005999982,-1,5,0,0
34.036취,34036,-0.005999982,0.1320001,-0.005999982,-1,5,0,0
34.084취,34084,-0.005999982,0.1320001,-0.005999982,-1,5,0,0
34.136취,34136,-0.005999982,0.1340001,-0.005999982,-1,5,0,0
34.188취,34188,-0.005999982,0.1320001,-0.007999957,-1,5,0,0
34.24취,34240,-0.005999982,0.1320001,-0.005999982,-1,5,0,0
34.288취,34288,-0.005999982,0.1320001,-0.005999982,-1,5,0,0
34.34취,34340,-0.005999982,0.1340001,-0.005999982,-1,5,0,0
34.388취,34388,-0.005999982,0.1320001,-0.007999957,-1,5,0,0
34.444취,34444,-0.005999982,0.1320001,-0.007999957,-1,5,0,0
34.492취,34492,-0.005999982,0.1320001,-0.005999982,-1,5,0,0
34.544취,34544,-0.005999982,0.1320001,-0.005999982,-1,5,0,0
34.592취,34592,-0.005999982,0.1320001,-0.005999982,-1,5,0,0
34.644취,34644,-0.005999982,0.1320001,-0.005999982,-1,5,0,0
34.696취,34696,-0.005999982,0.1320001,-0.005999982,-1,5,0,0
34.748취,34748,-0.005999982,0.1320001,-0.005999982,-1,5,0,0
34.796취,34796,-0.005999982,0.1320001,-0.007999957,-1,5,0,0
34.848취,34848,-0.005999982,0.1340001,-0.005999982,-1,5,0,0
34.896취,34896,-0.005999982,0.1320001,-0.007999957,-1,5,0,0
34.948취,34948,-0.005999982,0.1320001,-0.005999982,-1,5,0,0
34.996취,34996,-0.005999982,0.1340001,-0.005999982,-1,5,0,0
35.048취,35048,-0.005999982,0.1340001,-0.005999982,-1,5,0,0
35.1취,35100,-0.005999982,0.1320001,-0.007999957,-1,5,0,0
35.152취,35152,-0.005999982,0.1340001,-0.005999982,-1,5,0,0
35.204취,35204,-0.005999982,0.1340001,-0.007999957,-1,5,0,0
35.256취,35256,-0.005999982,0.1320001,-0.005999982,-1,5,0,0
35.304취,35304,-0.005999982,0.1320001,-0.007999957,-1,5,0,0
35.356취,35356,-0.005999982,0.1320001,-0.007999957,-1,5,0,0
35.404취,35404,-0.005999982,0.1320001,-0.007999957,-1,5,0,0
35.456취,35456,-0.005999982,0.1320001,-0.007999957,-1,5,0,0
35.504취,35504,-0.005999982,0.1340001,-0.007999957,-1,5,0,0
35.556취,35556,-0.005999982,0.1340001,-0.005999982,-1,5,0,0
35.604취,35604,-0.005999982,0.1320001,-0.007999957,-1,5,0,0
35.66취,35660,-0.005999982,0.1320001,-0.007999957,-1,5,0,0
35.712취,35712,-0.005999982,0.1320001,-0.007999957,-1,5,0,0
35.76취,35760,-0.005999982,0.1340001,-0.007999957,-1,5,0,0
35.812취,35812,-0.005999982,0.1320001,-0.007999957,-1,5,0,0
35.86취,35860,-0.005999982,0.1320001,-0.007999957,-1,5,0,0
35.912취,35912,-0.005999982,0.1340001,-0.007999957,-1,5,0,0
35.964취,35964,-0.005999982,0.1340001,-0.007999957,-1,5,0,0
36.02취,36020,-0.005999982,0.1320001,-0.007999957,-1,5,0,0
36.068취,36068,-0.005999982,0.1320001,-0.007999957,-1,5,0,0
36.12취,36120,-0.005999982,0.1320001,-0.007999957,-1,5,0,0
36.168취,36168,-0.005999982,0.1320001,-0.007999957,-1,5,0,0
36.22취,36220,-0.005999982,0.1340001,-0.007999957,-1,5,0,0
36.272취,36272,-0.005999982,0.1320001,-0.007999957,-1,5,0,0
36.324취,36324,-0.005999982,0.1340001,-0.007999957,-1,5,0,0
36.372취,36372,-0.005999982,0.1320001,-0.007999957,-1,5,0,0
36.424취,36424,-0.005999982,0.1320001,-0.007999957,-1,5,0,0
36.472취,36472,-0.005999982,0.1320001,-0.007999957,-1,5,0,0
36.524취,36524,-0.005999982,0.1320001,-0.007999957,-1,5,0,0
36.572취,36572,-0.005999982,0.1320001,-0.007999957,-1,5,0,0
36.624취,36624,-0.005999982,0.1340001,-0.007999957,-1,5,0,0
36.676취,36676,-0.005999982,0.1340001,-0.009999931,-1,5,0,0
36.728취,36728,-0.005999982,0.1340001,-0.007999957,-1,5,0,0
36.78취,36780,-0.005999982,0.1340001,-0.007999957,-1,5,0,0
36.836취,36836,-0.005999982,0.1320001,-0.007999957,-1,5,0,0
36.884취,36884,-0.005999982,0.1320001,-0.007999957,-1,5,0,0
36.936취,36936,-0.005999982,0.1320001,-0.007999957,-1,5,0,0
36.984취,36984,-0.005999982,0.1320001,-0.009999931,-1,5,0,0
37.036취,37036,-0.005999982,0.1320001,-0.009999931,-1,5,0,0
37.084취,37084,-0.005999982,0.1320001,-0.007999957,-1,5,0,0
37.136취,37136,-0.005999982,0.1320001,-0.009999931,-1,5,0,0
37.184취,37184,-0.005999982,0.1320001,-0.009999931,-1,5,0,0
37.236취,37236,-0.005999982,0.1320001,-0.009999931,-1,5,0,0
37.288취,37288,-0.005999982,0.1340001,-0.009999931,-1,5,0,0
37.34취,37340,-0.005999982,0.1320001,-0.009999931,-1,5,0,0
37.388취,37388,-0.005999982,0.1340001,-0.009999931,-1,5,0,0
37.44취,37440,-0.005999982,0.1340001,-0.009999931,-1,5,0,0
37.488취,37488,-0.005999982,0.1320001,-0.009999931,-1,5,0,0
37.544취,37544,-0.005999982,0.1320001,-0.009999931,-1,5,0,0
37.592취,37592,-0.005999982,0.1320001,-0.009999931,-1,5,0,0
37.644취,37644,-0.005999982,0.1320001,-0.007999957,-1,5,0,0
37.692취,37692,-0.005999982,0.1340001,-0.009999931,-1,5,0,0
37.744취,37744,-0.005999982,0.1340001,-0.009999931,-1,5,0,0
37.796취,37796,-0.005999982,0.1320001,-0.009999931,-1,5,0,0
37.848취,37848,-0.005999982,0.1320001,-0.009999931,-1,5,0,0
37.9취,37900,-0.005999982,0.1320001,-0.009999931,-1,5,0,0
37.948취,37948,-0.005999982,0.1320001,-0.009999931,-1,5,0,0
38취,38000,-0.005999982,0.1320001,-0.009999931,-1,5,0,0
38.048취,38048,-0.005999982,0.1320001,-0.009999931,-1,5,0,0
38.104취,38104,-0.005999982,0.1320001,-0.009999931,-1,5,0,0
38.152취,38152,-0.005999982,0.1320001,-0.009999931,-1,5,0,0
38.204취,38204,-0.005999982,0.1340001,-0.009999931,-1,5,0,0
38.252취,38252,-0.005999982,0.1320001,-0.009999931,-1,5,0,0
38.304취,38304,-0.005999982,0.1320001,-0.009999931,-1,5,0,0
38.356취,38356,-0.005999982,0.1320001,-0.009999931,-1,5,0,0
38.408취,38408,-0.005999982,0.1320001,-0.009999931,-1,5,0,0
38.456취,38456,-0.005999982,0.1320001,-0.009999931,-1,5,0,0
38.508취,38508,-0.005999982,0.1320001,-0.009999931,-1,5,0,0
38.56취,38560,-0.005999982,0.1320001,-0.009999931,-1,5,0,0
38.612취,38612,-0.005999982,0.1320001,-0.009999931,-1,5,0,0
38.664취,38664,-0.005999982,0.1320001,-0.009999931,-1,5,0,0
38.712취,38712,-0.005999982,0.1320001,-0.009999931,-1,5,0,0
38.764취,38764,-0.005999982,0.1320001,-0.009999931,-1,5,0,0
38.812취,38812,-0.005999982,0.1320001,-0.009999931,-1,5,0,0
38.864취,38864,-0.005999982,0.1320001,-0.009999931,-1,5,0,0
38.916취,38916,-0.005999982,0.1340001,-0.009999931,-1,5,0,0
38.964취,38964,-0.005999982,0.1320001,-0.009999931,-1,5,0,0
39.016취,39016,-0.005999982,0.1320001,-0.009999931,-1,5,0,0
39.068취,39068,-0.005999982,0.1320001,-0.009999931,-1,5,0,0
39.12취,39120,-0.005999982,0.1320001,-0.009999931,-1,5,0,0
39.172취,39172,-0.005999982,0.1320001,-0.009999931,-1,5,0,0
39.224취,39224,-0.005999982,0.1320001,-0.009999931,-1,5,0,0
39.272취,39272,-0.005999982,0.1320001,-0.003999949,-1,5,0,0
39.324취,39324,-0.005999982,0.1320001,-0.003999949,-1,5,0,0
39.372취,39372,-0.005999982,0.1320001,-0.005999982,-0.888,5,0,0
39.428취,39428,-0.005999982,0.1320001,-0.005999982,-0.672,5,0,0
39.476취,39476,-0.005999982,0.1320001,-0.007999957,-0.432,5,0,0
39.528취,39528,-0.005999982,0.1320001,-0.009999931,-0.01199996,5,0,0
39.576취,39576,-0.005999982,0.1320001,-0.007999957,-0.005999982,5,0,0
39.628취,39628,-0.005999982,0.1320001,-0.003999949,-0.005999982,5,0,0
39.68취,39680,-0.005999982,0.1340001,-0.003999949,-0.005999982,5,0,0
39.728취,39728,-0.005999982,0.1320001,-0.003999949,-0.005999982,5,0,0
39.78취,39780,-0.005999982,0.1320001,-0.003999949,-0.005999982,5,0,0
39.828취,39828,-0.005999982,0.1340001,-0.003999949,-0.005999982,5,0,0
39.88취,39880,-0.005999982,0.1320001,-0.003999949,-0.005999982,5,0,0
39.936취,39936,-0.005999982,0.1320001,-0.003999949,-0.005999982,5,0,0
39.984취,39984,-0.005999982,0.1320001,-0.003999949,-0.005999982,5,0,0
40.036취,40036,-0.005999982,0.1320001,-0.003999949,-0.005999982,5,0,0
40.084취,40084,-0.005999982,0.1340001,-0.003999949,-0.005999982,5,0,0
40.136취,40136,-0.005999982,0.1340001,-0.003999949,-0.005999982,5,0,0
40.184취,40184,-0.005999982,0.1320001,-0.003999949,-0.005999982,5,0,0
40.236취,40236,-0.005999982,0.1340001,-0.003999949,-0.005999982,5,0,0
40.284취,40284,-0.005999982,0.1320001,-0.003999949,-0.005999982,5,0,0
40.336취,40336,-0.005999982,0.1320001,-0.003999949,-0.005999982,5,0,0
40.388취,40388,-0.005999982,0.1320001,-0.003999949,-0.005999982,5,0,0
40.44취,40440,-0.005999982,0.1340001,-0.003999949,-0.005999982,5,0,0
40.496취,40496,-0.005999982,0.1320001,-0.003999949,-0.005999982,5,0,0
40.544취,40544,-0.005999982,0.1320001,-0.003999949,-0.005999982,5,0,0
40.596취,40596,-0.005999982,0.1340001,-0.003999949,-0.005999982,5,0,0
40.644취,40644,-0.005999982,0.1340001,-0.003999949,-0.005999982,5,0,0
40.696취,40696,-0.005999982,0.1340001,-0.003999949,-0.005999982,5,0,0
40.748취,40748,-0.005999982,0.1320001,-0.003999949,-0.005999982,5,0,0
40.8취,40800,-0.005999982,0.1340001,-0.003999949,-0.005999982,5,0,0
40.848취,40848,-0.005999982,0.1340001,0,-0.005999982,5,0,0
40.9취,40900,-0.005999982,0.1320001,0.0200001,-0.005999982,5,0,0
40.948취,40948,-0.005999982,0.1320001,0.07000005,-0.005999982,5,0,0
41.004취,41004,-0.005999982,0.1340001,0.294,-0.009999931,5,0,0
41.052취,41052,-0.005999982,0.1320001,0.4260001,-0.009999931,5,0,0
41.104취,41104,-0.005999982,0.1320001,0.702,-0.009999931,5,0,0
41.152취,41152,-0.005999982,0.1340001,0.9420002,-0.01599997,5,0,0
41.204취,41204,-0.005999982,0.1320001,1,-0.01199996,5,0,0
41.256취,41256,-0.005999982,0.1320001,1,-0.01199996,5,0,0
41.304취,41304,-0.005999982,0.1320001,1,-0.01199996,5,0,0
41.356취,41356,-0.005999982,0.1320001,1,-0.01599997,5,0,0
41.404취,41404,-0.005999982,0.1340001,1,-0.01599997,5,0,0
41.456취,41456,-0.005999982,0.1320001,1,-0.01999998,5,0,0
41.512취,41512,-0.005999982,0.1320001,1,-0.01199996,5,0,0
41.56취,41560,-0.005999982,0.1320001,1,-0.01199996,5,0,0
41.612취,41612,-0.005999982,0.1340001,1,-0.01199996,5,0,0
41.66취,41660,-0.005999982,0.1320001,1,-0.01199996,5,0,0
41.712취,41712,-0.005999982,0.1320001,1,-0.01199996,5,0,0
41.76취,41760,-0.005999982,0.1320001,1,-0.01199996,5,0,0
41.812취,41812,-0.005999982,0.1320001,1,-0.01199996,5,0,0
41.86취,41860,-0.005999982,0.1320001,1,-0.01599997,5,0,0
41.912취,41912,-0.005999982,0.1320001,1,-0.01599997,5,0,0
41.964취,41964,-0.005999982,0.1340001,1,-0.007999957,5,0,0
42.016취,42016,-0.005999982,0.1320001,1,-0.009999931,5,0,0
42.072취,42072,-0.005999982,0.1320001,1,-0.007999957,5,0,0
42.12취,42120,-0.005999982,0.1340001,1,-0.007999957,5,0,0
42.172취,42172,-0.005999982,0.1340001,1,-0.007999957,5,0,0
42.22취,42220,-0.005999982,0.1320001,1,-0.007999957,5,0,0
42.272취,42272,-0.005999982,0.1320001,1,-0.007999957,5,0,0
42.324취,42324,-0.005999982,0.1340001,1,-0.007999957,5,0,0
42.376취,42376,-0.005999982,0.1320001,1,-0.007999957,5,0,0
42.424취,42424,-0.005999982,0.1340001,1,-0.007999957,5,0,0
42.476취,42476,-0.005999982,0.1320001,1,-0.003999949,5,0,0
42.524취,42524,-0.005999982,0.1320001,1,0,5,0,0
42.576취,42576,-0.005999982,0.1340001,1,0,5,0,0
42.624취,42624,-0.005999982,0.1320001,1,0,5,0,0
42.676취,42676,-0.005999982,0.1320001,1,-0.003999949,5,0,0
42.724취,42724,-0.005999982,0.1340001,1,-0.003999949,5,0,0
42.78취,42780,-0.005999982,0.1340001,1,0,5,0,0
42.832취,42832,-0.005999982,0.1320001,1,0,5,0,0
42.884취,42884,-0.005999982,0.1320001,1,0,5,0,0
42.936취,42936,-0.005999982,0.1340001,1,0.002000093,5,0,0
42.984취,42984,-0.005999982,0.1320001,1,0.002000093,5,0,0
43.036취,43036,-0.005999982,0.1320001,1,0.002000093,5,0,0
43.088취,43088,-0.005999982,0.1320001,1,0.002000093,5,0,0
43.136취,43136,-0.005999982,0.1340001,1,0.002000093,5,0,0
43.188취,43188,-0.005999982,0.1340001,1,0.004000068,5,0,0
43.236취,43236,-0.005999982,0.1340001,1,0.002000093,5,0,0
43.288취,43288,-0.005999982,0.1340001,1,0,5,0,0
43.34취,43340,-0.005999982,0.1320001,1,0.002000093,5,0,0
43.388취,43388,-0.005999982,0.1340001,1,0.002000093,5,0,0
43.44취,43440,-0.005999982,0.1320001,1,0.002000093,5,0,0
43.488취,43488,-0.005999982,0.1340001,1,0.002000093,5,0,0
43.54취,43540,-0.005999982,0.13,1,0.002000093,5,0,0
43.592취,43592,-0.005999982,0.1340001,1,0.002000093,5,0,0
43.648취,43648,-0.005999982,0.1320001,1,0.002000093,5,0,0
43.696취,43696,-0.005999982,0.1340001,1,0.002000093,5,0,0
43.748취,43748,-0.005999982,0.1340001,1,0.002000093,5,0,0
43.796취,43796,-0.005999982,0.1320001,1,0.002000093,5,0,0
43.848취,43848,-0.005999982,0.1340001,1,0.004000068,5,0,0
43.9취,43900,-0.005999982,0.1320001,1,0.002000093,5,0,0
43.952취,43952,-0.005999982,0.1340001,1,0.002000093,5,0,0
44취,44000,-0.005999982,0.1340001,1,0.004000068,5,0,0
44.052취,44052,-0.005999982,0.1320001,1,0.004000068,5,0,0
44.1취,44100,-0.005999982,0.1320001,1,0.004000068,5,0,0
44.152취,44152,-0.005999982,0.1320001,1,0.004000068,5,0,0
44.2취,44200,-0.005999982,0.1340001,1,0.004000068,5,0,0
44.252취,44252,-0.005999982,0.1340001,1,0.002000093,5,0,0
44.3취,44300,-0.005999982,0.1340001,1,0,5,0,0
44.356취,44356,-0.005999982,0.1320001,1,0.002000093,5,0,0
44.408취,44408,-0.005999982,0.1320001,1,0.002000093,5,0,0
44.456취,44456,-0.005999982,0.1340001,1,0.002000093,5,0,0
44.508취,44508,-0.005999982,0.1320001,1,0.002000093,5,0,0
44.556취,44556,-0.005999982,0.1340001,1,0.004000068,5,0,0
44.608취,44608,-0.005999982,0.1320001,1,0.002000093,5,0,0
44.664취,44664,-0.005999982,0.1340001,1,0.002000093,5,0,0
44.712취,44712,-0.005999982,0.1320001,1,0.002000093,5,0,0
44.764취,44764,-0.005999982,0.1320001,1,0.002000093,5,0,0
44.812취,44812,-0.005999982,0.1320001,1,0.002000093,5,0,0
44.864취,44864,-0.005999982,0.1320001,1,0,5,0,0
44.916취,44916,-0.005999982,0.1320001,1,-0.003999949,5,0,0
44.964취,44964,-0.005999982,0.1340001,1,-0.009999931,5,0,0
45.016취,45016,-0.005999982,0.1340001,1,-0.007999957,5,0,0
45.064취,45064,-0.005999982,0.1320001,1,-0.01199996,5,0,0
45.116취,45116,-0.005999982,0.1320001,1,-0.01199996,5,0,0
45.172취,45172,-0.005999982,0.1320001,0.8460001,-0.009999931,5,0,0
45.22취,45220,-0.005999982,0.1320001,0.72,-0.009999931,5,0,0
45.272취,45272,-0.005999982,0.1320001,0.3800001,-0.007999957,5,0,0
45.32취,45320,-0.005999982,0.1320001,0.11,-0.007999957,5,0,0
45.372취,45372,-0.005999982,0.1320001,0,-0.007999957,5,0,0
45.424취,45424,-0.005999982,0.1320001,-0.005999982,-0.007999957,5,0,0
45.476취,45476,-0.005999982,0.1340001,-0.005999982,-0.007999957,5,0,0
45.528취,45528,-0.005999982,0.1340001,-0.005999982,-0.007999957,5,0,0
45.576취,45576,-0.005999982,0.1320001,-0.005999982,-0.005999982,5,0,0
45.628취,45628,-0.005999982,0.1320001,-0.005999982,-0.005999982,5,0,0
45.676취,45676,-0.005999982,0.1320001,-0.005999982,-0.005999982,5,0,0
45.732취,45732,-0.005999982,0.1320001,-0.005999982,-0.005999982,5,0,0
45.78취,45780,-0.005999982,0.1320001,-0.005999982,-0.005999982,5,0,0
45.832취,45832,-0.005999982,0.1320001,-0.005999982,-0.005999982,5,0,0
45.88취,45880,-0.005999982,0.1340001,-0.005999982,-0.005999982,5,0,0
45.932취,45932,-0.005999982,0.1320001,-0.005999982,-0.005999982,5,0,0
45.984취,45984,-0.005999982,0.1320001,-0.005999982,-0.005999982,5,0,0
46.036취,46036,-0.005999982,0.1320001,-0.005999982,-0.005999982,5,0,0
46.084취,46084,-0.005999982,0.1340001,-0.009999931,-0.005999982,5,0,0
46.136취,46136,-0.005999982,0.1340001,-0.04199994,-0.005999982,5,0,0
46.184취,46184,-0.005999982,0.1320001,-0.1759999,-0.005999982,5,0,0
46.24취,46240,-0.005999982,0.1320001,-0.276,-0.005999982,5,0,0
46.288취,46288,-0.005999982,0.1320001,-0.5,-0.005999982,5,0,0
46.34취,46340,-0.005999982,0.1320001,-0.714,-0.007999957,5,0,0
46.388취,46388,-0.005999982,0.1320001,-0.91,-0.03399998,5,0,0
46.44취,46440,-0.005999982,0.1320001,-1,-0.04599994,5,0,0
46.492취,46492,-0.005999982,0.1320001,-1,-0.03999996,5,0,0
46.544취,46544,-0.005999982,0.1320001,-1,-0.02799994,5,0,0
46.596취,46596,-0.005999982,0.1340001,-1,-0.02999997,5,0,0
46.644취,46644,-0.005999982,0.1320001,-1,-0.02799994,5,0,0
46.696취,46696,-0.005999982,0.1320001,-1,-0.03199995,5,0,0
46.748취,46748,-0.005999982,0.1340001,-1,-0.03799993,5,0,0
46.796취,46796,-0.005999982,0.1320001,-1,-0.03799993,5,0,0
46.848취,46848,-0.005999982,0.1340001,-1,-0.04799998,5,0,0
46.896취,46896,-0.005999982,0.1320001,-1,-0.04799998,5,0,0
46.948취,46948,-0.005999982,0.1320001,-1,-0.04799998,5,0,0
46.996취,46996,-0.005999982,0.1340001,-1,-0.04799998,5,0,0
47.048취,47048,-0.005999982,0.1320001,-1,-0.04999995,5,0,0
47.096취,47096,-0.005999982,0.1320001,-1,-0.04999995,5,0,0
47.148취,47148,-0.005999982,0.1320001,-1,-0.04999995,5,0,0
47.2취,47200,-0.005999982,0.1320001,-1,-0.04999995,5,0,0
47.252취,47252,-0.005999982,0.1320001,-1,-0.05199993,5,0,0
47.308취,47308,-0.005999982,0.1340001,-1,-0.05199993,5,0,0
47.356취,47356,-0.005999982,0.1320001,-1,-0.05199993,5,0,0
47.408취,47408,-0.005999982,0.1320001,-1,-0.05199993,5,0,0
47.456취,47456,-0.005999982,0.1320001,-1,-0.05199993,5,0,0
47.508취,47508,-0.005999982,0.1320001,-1,-0.04999995,5,0,0
47.56취,47560,-0.005999982,0.1320001,-1,-0.05199993,5,0,0
47.612취,47612,-0.005999982,0.1320001,-1,-0.05199993,5,0,0
47.66취,47660,-0.005999982,0.1340001,-1,-0.05199993,5,0,0
47.712취,47712,-0.005999982,0.1340001,-1,-0.04999995,5,0,0
47.76취,47760,-0.005999982,0.1340001,-1,-0.04999995,5,0,0
47.816취,47816,-0.005999982,0.1320001,-1,-0.05199993,5,0,0
47.864취,47864,-0.005999982,0.1320001,-1,-0.05199993,5,0,0
47.916취,47916,-0.005999982,0.1320001,-1,-0.05199993,5,0,0
47.964취,47964,-0.005999982,0.1340001,-1,-0.05199993,5,0,0
48.016취,48016,-0.005999982,0.1320001,-1,-0.05199993,5,0,0
48.068취,48068,-0.005999982,0.1320001,-1,-0.05199993,5,0,0
48.116취,48116,-0.005999982,0.1320001,-1,-0.05199993,5,0,0
48.168취,48168,-0.005999982,0.1320001,-1,-0.05199993,5,0,0
48.216취,48216,-0.005999982,0.1320001,-1,-0.05199993,5,0,0
48.268취,48268,-0.005999982,0.1340001,-1,-0.05199993,5,0,0
48.32취,48320,-0.005999982,0.1320001,-1,-0.05599993,5,0,0
48.368취,48368,-0.005999982,0.1340001,-1,-0.05799997,5,0,0
48.42취,48420,-0.005999982,0.1320001,-1,-0.05799997,5,0,0
48.468취,48468,-0.005999982,0.1320001,-1,-0.05999994,5,0,0
48.524취,48524,-0.005999982,0.1320001,-1,-0.06199998,5,0,0
48.572취,48572,-0.005999982,0.1320001,-1,-0.06199998,5,0,0
48.624취,48624,-0.005999982,0.1340001,-1,-0.06199998,5,0,0
48.672취,48672,-0.005999982,0.1320001,-1,-0.06199998,5,0,0
48.724취,48724,-0.005999982,0.1340001,-1,-0.06199998,5,0,0
48.776취,48776,-0.005999982,0.1320001,-1,-0.06199998,5,0,0
48.828취,48828,-0.005999982,0.1320001,-1,-0.06199998,5,0,0
48.884취,48884,-0.005999982,0.1320001,-1,-0.05999994,5,0,0
48.932취,48932,-0.005999982,0.1320001,-1,-0.05999994,5,0,0
48.984취,48984,-0.005999982,0.1320001,-1,-0.05999994,5,0,0
49.032취,49032,-0.005999982,0.1320001,-1,-0.06199998,5,0,0
49.084취,49084,-0.005999982,0.1340001,-1,-0.06199998,5,0,0
49.136취,49136,-0.005999982,0.1340001,-1,-0.06199998,5,0,0
49.188취,49188,-0.005999982,0.1320001,-1,-0.06199998,5,0,0
49.236취,49236,-0.005999982,0.1320001,-1,-0.06199998,5,0,0
49.288취,49288,-0.005999982,0.1320001,-1,-0.06199998,5,0,0
49.336취,49336,-0.005999982,0.1320001,-1,-0.06199998,5,0,0
49.388취,49388,-0.005999982,0.1320001,-1,-0.06199998,5,0,0
49.436취,49436,-0.005999982,0.1320001,-1,-0.06199998,5,0,0
49.488취,49488,-0.005999982,0.1320001,-1,-0.06199998,5,0,0
49.536취,49536,-0.005999982,0.1340001,-1,-0.06199998,5,0,0
49.592취,49592,-0.005999982,0.1340001,-1,-0.06199998,5,0,0
49.644취,49644,-0.005999982,0.1340001,-1,-0.06199998,5,0,0
49.692취,49692,-0.005999982,0.1320001,-1,-0.06199998,5,0,0
49.744취,49744,-0.005999982,0.1320001,-1,-0.06199998,5,0,0
49.792취,49792,-0.005999982,0.1320001,-1,-0.06199998,5,0,0
49.844취,49844,-0.005999982,0.1320001,-1,-0.06399995,5,0,0
49.896취,49896,-0.005999982,0.1340001,-1,-0.06399995,5,0,0
49.948취,49948,-0.005999982,0.1320001,-1,-0.06599998,5,0,0
49.996취,49996,-0.005999982,0.1320001,-1,-0.06599998,5,0,0
50.048취,50048,-0.005999982,0.1340001,-1,-0.06599998,5,0,0
50.096취,50096,-0.005999982,0.1320001,-1,-0.06599998,5,0,0
50.152취,50152,-0.005999982,0.1340001,-1,-0.06799996,5,0,0
50.2취,50200,-0.005999982,0.1320001,-1,-0.06799996,5,0,0
50.252취,50252,-0.005999982,0.1320001,-1,-0.06799996,5,0,0
50.3취,50300,-0.005999982,0.1340001,-1,-0.06799996,5,0,0
50.352취,50352,-0.005999982,0.1320001,-1,-0.06999993,5,0,0
50.404취,50404,-0.005999982,0.1340001,-1,-0.06999993,5,0,0
50.46취,50460,-0.005999982,0.1320001,-1,-0.06999993,5,0,0
50.508취,50508,-0.005999982,0.1340001,-1,-0.06999993,5,0,0
50.56취,50560,-0.005999982,0.1320001,-1,-0.06999993,5,0,0
50.608취,50608,-0.005999982,0.1340001,-1,-0.06999993,5,0,0
50.66취,50660,-0.005999982,0.1320001,-1,-0.07199997,5,0,0
50.712취,50712,-0.005999982,0.1320001,-1,-0.06999993,5,0,0
50.764취,50764,-0.005999982,0.1320001,-1,-0.07199997,5,0,0
50.812취,50812,-0.005999982,0.1320001,-1,-0.07199997,5,0,0
50.864취,50864,-0.005999982,0.1320001,-1,-0.07199997,5,0,0
50.912취,50912,-0.005999982,0.1320001,-1,-0.07199997,5,0,0
50.968취,50968,-0.005999982,0.1340001,-1,-0.07199997,5,0,0
51.016취,51016,-0.005999982,0.1320001,-1,-0.07199997,5,0,0
51.068취,51068,-0.005999982,0.1340001,-1,-0.06999993,5,0,0
51.116취,51116,-0.005999982,0.1320001,-1,-0.06999993,5,0,0
51.168취,51168,-0.005999982,0.1320001,-1,-0.06999993,5,0,0
51.22취,51220,-0.005999982,0.1320001,-1,-0.06999993,5,0,0
51.272취,51272,-0.005999982,0.1320001,-1,-0.06999993,5,0,0
51.32취,51320,-0.005999982,0.1340001,-1,-0.06999993,5,0,0
51.372취,51372,-0.005999982,0.1340001,-1,-0.06599998,5,0,0
51.42취,51420,-0.005999982,0.1320001,-0.696,0,5,0,0
51.476취,51476,-0.005999982,0.1340001,0.146,0,5,0,0
51.524취,51524,-0.005999982,0.1340001,0.0200001,0,5,0,0
51.576취,51576,-0.005999982,0.1320001,-0.01399994,0,5,0,0
51.624취,51624,-0.005999982,0.1320001,-0.005999982,0,5,0,0
51.676취,51676,-0.005999982,0.1320001,-0.005999982,0,5,0,0
51.728취,51728,-0.005999982,0.1320001,-0.005999982,0,5,0,0
51.78취,51780,-0.005999982,0.1340001,-0.005999982,-0.003999949,5,0,0
51.832취,51832,-0.005999982,0.1320001,-0.005999982,-0.003999949,5,0,0
51.88취,51880,-0.005999982,0.1340001,-0.005999982,-0.003999949,5,0,0
51.932취,51932,-0.005999982,0.1340001,-0.005999982,0,5,0,0
51.98취,51980,-0.005999982,0.1320001,-0.005999982,-0.003999949,5,0,0
52.036취,52036,-0.005999982,0.1340001,-0.005999982,0,5,0,0
52.084취,52084,-0.005999982,0.1340001,-0.005999982,0,5,0,0
52.136취,52136,-0.005999982,0.1340001,-0.005999982,0,5,0,0
52.184취,52184,-0.005999982,0.1320001,-0.005999982,0,5,0,0
52.236취,52236,-0.005999982,0.1340001,-0.005999982,0,5,0,0
52.288취,52288,-0.005999982,0.1340001,-0.005999982,-0.003999949,5,0,0
52.34취,52340,-0.005999982,0.1320001,-0.005999982,-0.003999949,5,0,0
52.388취,52388,-0.005999982,0.1340001,-0.005999982,-0.003999949,5,0,0
52.44취,52440,-0.005999982,0.1320001,-0.005999982,-0.003999949,5,0,0
52.488취,52488,-0.005999982,0.1340001,-0.005999982,-0.003999949,5,0,0
52.54취,52540,-0.005999982,0.1320001,-0.005999982,-0.003999949,5,0,0
52.588취,52588,-0.005999982,0.1320001,-0.005999982,-0.003999949,5,0,0
52.64취,52640,-0.005999982,0.1340001,-0.005999982,-0.003999949,5,0,0
52.692취,52692,-0.005999982,0.1320001,-0.005999982,-0.003999949,5,0,0
52.744취,52744,-0.005999982,0.1320001,-0.005999982,0,5,0,0
52.796취,52796,-0.005999982,0.1320001,-0.005999982,0,5,0,0
52.848취,52848,-0.005999982,0.1320001,-0.005999982,-0.003999949,5,0,0
52.896취,52896,-0.005999982,0.1320001,-0.005999982,0,5,0,0
52.948취,52948,-0.005999982,0.1340001,-0.005999982,-0.003999949,5,0,0
52.996취,52996,-0.005999982,0.1320001,-0.005999982,-0.003999949,5,0,0
53.052취,53052,-0.005999982,0.1320001,-0.005999982,0,5,0,0
53.1취,53100,-0.005999982,0.1340001,-0.005999982,0,5,0,0
53.152취,53152,-0.005999982,0.1320001,-0.005999982,0,5,0,0
53.2취,53200,-0.005999982,0.1340001,-0.005999982,-0.003999949,5,0,0
53.252취,53252,-0.005999982,0.1320001,-0.005999982,-0.003999949,5,0,0
53.304취,53304,-0.005999982,0.1320001,-0.005999982,0,5,0,0
53.356취,53356,-0.005999982,0.1320001,-0.005999982,0.002000093,5,0,0
53.408취,53408,-0.005999982,0.1320001,-0.005999982,0.02400005,5,0,0
53.456취,53456,-0.005999982,0.1340001,-0.005999982,0.09600008,5,0,0
53.508취,53508,-0.005999982,0.1340001,-0.003999949,0.154,5,0,0
53.556취,53556,-0.005999982,0.1340001,-0.003999949,0.1900001,5,0,0
53.612취,53612,-0.005999982,0.1340001,-0.003999949,0.21,5,0,0
53.66취,53660,-0.005999982,0.1340001,-0.003999949,0.222,5,0,0
53.712취,53712,-0.005999982,0.1340001,-0.005999982,0.2240001,5,0,0
